---
Addresses: 
- ID: "1"
  Line1: "77557 Lillian Terrace"
  Line2: 
  City: "Houston"
  PostalCode: "77065"
  StateProvince: "Texas"
  Country: "United States"
  Latitude: "29.9319"
  Longitude: "-95.6106"
- ID: "2"
  Line1: "5636 Mccormick Trail"
  Line2: 
  City: "New York City"
  PostalCode: "10292"
  StateProvince: "New York"
  Country: "United States"
  Latitude: "40.7808"
  Longitude: "-73.9772"
- ID: "3"
  Line1: "8954 Rutledge Parkway"
  Line2: 
  City: "Schenectady"
  PostalCode: "12305"
  StateProvince: "New York"
  Country: "United States"
  Latitude: "42.8161"
  Longitude: "-73.9398"
- ID: "4"
  Line1: "91009 Sunnyside Pass"
  Line2: "Apartment 12"
  City: "Memphis"
  PostalCode: "38161"
  StateProvince: "Tennessee"
  Country: "United States"
  Latitude: "35.2017"
  Longitude: "-89.9715"
- ID: "5"
  Line1: "51309 Thompson Street"
  Line2: 
  City: "Tulsa"
  PostalCode: "74126"
  StateProvince: "Oklahoma"
  Country: "United States"
  Latitude: "36.2383"
  Longitude: "-95.9931"
- ID: "6"
  Line1: "19 Mandrake Way"
  Line2: 
  City: "Fort Wayne"
  PostalCode: "46896"
  StateProvince: "Indiana"
  Country: "United States"
  Latitude: "41.0938"
  Longitude: "-85.0707"
- ID: "7"
  Line1: "0789 North Terrace"
  Line2: 
  City: "Albany"
  PostalCode: "12247"
  StateProvince: "New York"
  Country: "United States"
  Latitude: "42.6149"
  Longitude: "-73.9708"
- ID: "8"
  Line1: "5 Weeping Birch Terrace"
  Line2: 
  City: "San Antonio"
  PostalCode: "78230"
  StateProvince: "Texas"
  Country: "United States"
  Latitude: "29.5407"
  Longitude: "-98.5521"
- ID: "9"
  Line1: "259 Duke Way"
  Line2: 
  City: "Birmingham"
  PostalCode: "35231"
  StateProvince: "Alabama"
  Country: "United States"
  Latitude: "33.5446"
  Longitude: "-86.9292"
- ID: "10"
  Line1: "720 Hovde Alley"
  Line2: 
  City: "Anchorage"
  PostalCode: "99522"
  StateProvince: "Alaska"
  Country: "United States"
  Latitude: "61.1089"
  Longitude: "-149.4403"
- ID: "11"
  Line1: "25 Spenser Way"
  Line2: 
  City: "Indianapolis"
  PostalCode: "46221"
  StateProvince: "Indiana"
  Country: "United States"
  Latitude: "39.7509"
  Longitude: "-86.1924"
- ID: "12"
  Line1: "2131 Fordem Trail"
  Line2: 
  City: "Wichita"
  PostalCode: "67210"
  StateProvince: "Kansas"
  Country: "United States"
  Latitude: "37.6379"
  Longitude: "-97.2613"
- ID: "13"
  Line1: "16 Cascade Street"
  Line2: 
  City: "Buffalo"
  PostalCode: "14276"
  StateProvince: "New York"
  Country: "United States"
  Latitude: "42.7684"
  Longitude: "-78.8871"
- ID: "14"
  Line1: "7 5th Avenue"
  Line2: 
  City: "Memphis"
  PostalCode: "38150"
  StateProvince: "Tennessee"
  Country: "United States"
  Latitude: "35.2017"
  Longitude: "-89.9715"
- ID: "15"
  Line1: "3741 Monica Way"
  Line2: 
  City: "Cleveland"
  PostalCode: "44118"
  StateProvince: "Ohio"
  Country: "United States"
  Latitude: "41.5008"
  Longitude: "-81.5516"
- ID: "16"
  Line1: "05584 Bluestem Pass"
  Line2: 
  City: "Riverside"
  PostalCode: "92505"
  StateProvince: "California"
  Country: "United States"
  Latitude: "33.9228"
  Longitude: "-117.4867"
- ID: "17"
  Line1: "4506 Mallory Terrace"
  Line2: 
  City: "Portsmouth"
  PostalCode: "3804"
  StateProvince: "New Hampshire"
  Country: "United States"
  Latitude: "43.0059"
  Longitude: "-71.0132"
- ID: "18"
  Line1: "1509 Lawn Terrace"
  Line2: 
  City: "Washington"
  PostalCode: "20226"
  StateProvince: "District of Columbia"
  Country: "United States"
  Latitude: "38.8933"
  Longitude: "-77.0146"
- ID: "19"
  Line1: "20 Burning Wood Way"
  Line2: 
  City: "Honolulu"
  PostalCode: "96840"
  StateProvince: "Hawaii"
  Country: "United States"
  Latitude: "21.3068"
  Longitude: "-157.8607"
- ID: "20"
  Line1: "264 Sloan Way"
  Line2: 
  City: "Cleveland"
  PostalCode: "44125"
  StateProvince: "Ohio"
  Country: "United States"
  Latitude: "41.4335"
  Longitude: "-81.6323"
- ID: "21"
  Line1: "17 Manufacturers Avenue"
  Line2: 
  City: "Saint Louis"
  PostalCode: "63158"
  StateProvince: "Missouri"
  Country: "United States"
  Latitude: "38.6531"
  Longitude: "-90.2435"
- ID: "22"
  Line1: "7692 Eastlawn Court"
  Line2: 
  City: "Merrifield"
  PostalCode: "22119"
  StateProvince: "Virginia"
  Country: "United States"
  Latitude: "38.8318"
  Longitude: "-77.2888"
- ID: "23"
  Line1: "7925 Kenwood Alley"
  Line2: "Apt 66"
  City: "Dallas"
  PostalCode: "75260"
  StateProvince: "Texas"
  Country: "United States"
  Latitude: "32.7673"
  Longitude: "-96.7776"
- ID: "24"
  Line1: "72681 Eagan Street"
  Line2: 
  City: "Boulder"
  PostalCode: "80328"
  StateProvince: "Colorado"
  Country: "United States"
  Latitude: "40.0878"
  Longitude: "-105.3735"
- ID: "25"
  Line1: "69 Mitchell Pass"
  Line2: 
  City: "Anniston"
  PostalCode: "36205"
  StateProvince: "Alabama"
  Country: "United States"
  Latitude: "33.7358"
  Longitude: "-85.7933"
- ID: "26"
  Line1: "8 Morning Drive"
  Line2: 
  City: "Baltimore"
  PostalCode: "21203"
  StateProvince: "Maryland"
  Country: "United States"
  Latitude: "39.2847"
  Longitude: "-76.6205"
- ID: "27"
  Line1: "116 Corscot Pass"
  Line2: 
  City: "Austin"
  PostalCode: "78764"
  StateProvince: "Texas"
  Country: "United States"
  Latitude: "30.4455"
  Longitude: "-97.6595"
- ID: "28"
  Line1: "9907 Oneill Park"
  Line2: 
  City: "Hot Springs National Park"
  PostalCode: "71914"
  StateProvince: "Arkansas"
  Country: "United States"
  Latitude: "34.5137"
  Longitude: "-92.9685"
- ID: "29"
  Line1: "9993 Hauk Center"
  Line2: 
  City: "San Antonio"
  PostalCode: "78296"
  StateProvince: "Texas"
  Country: "United States"
  Latitude: "29.4375"
  Longitude: "-98.4616"
- ID: "30"
  Line1: "557 Gale Point"
  Line2: 
  City: "Huntington"
  PostalCode: "25721"
  StateProvince: "West Virginia"
  Country: "United States"
  Latitude: "38.4134"
  Longitude: "-82.2774"
- ID: "31"
  Line1: "50 Golf Center"
  Line2: 
  City: "Dallas"
  PostalCode: "75367"
  StateProvince: "Texas"
  Country: "United States"
  Latitude: "32.7673"
  Longitude: "-96.7776"
- ID: "32"
  Line1: "492 5th Place"
  Line2: 
  City: "Lima"
  PostalCode: "45807"
  StateProvince: "Ohio"
  Country: "United States"
  Latitude: "40.7955"
  Longitude: "-84.1383"
- ID: "33"
  Line1: "98060 Namekagon Street"
  Line2: 
  City: "Staten Island"
  PostalCode: "10310"
  StateProvince: "New York"
  Country: "United States"
  Latitude: "40.6324"
  Longitude: "-74.1172"
- ID: "34"
  Line1: "67766 Sachtjen Alley"
  Line2: 
  City: "Lincoln"
  PostalCode: "68583"
  StateProvince: "Nebraska"
  Country: "United States"
  Latitude: "40.7845"
  Longitude: "-96.6888"
- ID: "35"
  Line1: "21 Sauthoff Street"
  Line2: 
  City: "Stamford"
  PostalCode: "6922"
  StateProvince: "Connecticut"
  Country: "United States"
  Latitude: "41.0516"
  Longitude: "-73.5143"
- ID: "36"
  Line1: "261 Shopko Lane"
  Line2: 
  City: "Naperville"
  PostalCode: "60567"
  StateProvince: "Illinois"
  Country: "United States"
  Latitude: "41.8397"
  Longitude: "-88.0887"
- ID: "37"
  Line1: "0 Riverside Drive"
  Line2: 
  City: "San Antonio"
  PostalCode: "78260"
  StateProvince: "Texas"
  Country: "United States"
  Latitude: "29.7026"
  Longitude: "-98.4759"
- ID: "38"
  Line1: "41692 Vermont Trail"
  Line2: 
  City: "Cincinnati"
  PostalCode: "45264"
  StateProvince: "Ohio"
  Country: "United States"
  Latitude: "39.1668"
  Longitude: "-84.5382"
- ID: "39"
  Line1: "4 American Ash Center"
  Line2: 
  City: "Albuquerque"
  PostalCode: "87115"
  StateProvince: "New Mexico"
  Country: "United States"
  Latitude: "35.0549"
  Longitude: "-106.5461"
- ID: "40"
  Line1: "8 Dennis Trail"
  Line2: 
  City: "Springfield"
  PostalCode: "62764"
  StateProvince: "Illinois"
  Country: "United States"
  Latitude: "39.7495"
  Longitude: "-89.606"
- ID: "41"
  Line1: "37456 Killdeer Drive"
  Line2: 
  City: "Tuscaloosa"
  PostalCode: "35405"
  StateProvince: "Alabama"
  Country: "United States"
  Latitude: "33.1617"
  Longitude: "-87.5144"
- ID: "42"
  Line1: "90709 Vera Point"
  Line2: 
  City: "Irvine"
  PostalCode: "92619"
  StateProvince: "California"
  Country: "United States"
  Latitude: "33.6706"
  Longitude: "-117.7645"
- ID: "43"
  Line1: "33168 Namekagon Pass"
  Line2: 
  City: "Saginaw"
  PostalCode: "48604"
  StateProvince: "Michigan"
  Country: "United States"
  Latitude: "43.4732"
  Longitude: "-83.9514"
- ID: "44"
  Line1: "874 Forest Dale Junction"
  Line2: 
  City: "Huntsville"
  PostalCode: "35805"
  StateProvince: "Alabama"
  Country: "United States"
  Latitude: "34.7059"
  Longitude: "-86.6165"
- ID: "45"
  Line1: "8483 Warrior Alley"
  Line2: 
  City: "Shreveport"
  PostalCode: "71151"
  StateProvince: "Louisiana"
  Country: "United States"
  Latitude: "32.6076"
  Longitude: "-93.7526"
- ID: "46"
  Line1: "6 5th Road"
  Line2: 
  City: "Iowa City"
  PostalCode: "52245"
  StateProvince: "Iowa"
  Country: "United States"
  Latitude: "41.6649"
  Longitude: "-91.5151"
- ID: "47"
  Line1: "43 Shoshone Circle"
  Line2: 
  City: "Iowa City"
  PostalCode: "52245"
  StateProvince: "Iowa"
  Country: "United States"
  Latitude: "41.6649"
  Longitude: "-91.5151"
- ID: "48"
  Line1: "6536 Delladonna Hill"
  Line2: 
  City: "San Diego"
  PostalCode: "92165"
  StateProvince: "California"
  Country: "United States"
  Latitude: "33.0169"
  Longitude: "-116.846"
- ID: "49"
  Line1: "4558 School Street"
  Line2: 
  City: "Newton"
  PostalCode: "2162"
  StateProvince: "Massachusetts"
  Country: "United States"
  Latitude: "42.3319"
  Longitude: "-71.254"
- ID: "50"
  Line1: "261 Golf View Terrace"
  Line2: 
  City: "Sacramento"
  PostalCode: "95865"
  StateProvince: "California"
  Country: "United States"
  Latitude: "38.596"
  Longitude: "-121.3978"
- ID: "51"
  Line1: "9237 Arrowood Point"
  Line2: 
  City: "Salt Lake City"
  PostalCode: "84170"
  StateProvince: "Utah"
  Country: "United States"
  Latitude: "40.6681"
  Longitude: "-111.9083"
- ID: "52"
  Line1: "52226 Utah Way"
  Line2: 
  City: "Midland"
  PostalCode: "79710"
  StateProvince: "Texas"
  Country: "United States"
  Latitude: "31.8693"
  Longitude: "-102.0317"
- ID: "53"
  Line1: "4221 Superior Point"
  Line2: 
  City: "Palatine"
  PostalCode: "60078"
  StateProvince: "Illinois"
  Country: "United States"
  Latitude: "41.8119"
  Longitude: "-87.6873"
- ID: "54"
  Line1: "2 Declaration Park"
  Line2: 
  City: "Kansas City"
  PostalCode: "64136"
  StateProvince: "Missouri"
  Country: "United States"
  Latitude: "39.0187"
  Longitude: "-94.4008"
- ID: "55"
  Line1: "90795 Lerdahl Terrace"
  Line2: 
  City: "Mobile"
  PostalCode: "36670"
  StateProvince: "Alabama"
  Country: "United States"
  Latitude: "30.6589"
  Longitude: "-88.178"
- ID: "56"
  Line1: "01284 Bowman Street"
  Line2: 
  City: "Torrance"
  PostalCode: "90505"
  StateProvince: "California"
  Country: "United States"
  Latitude: "33.8106"
  Longitude: "-118.3507"
- ID: "57"
  Line1: "3775 Cardinal Alley"
  Line2: 
  City: "Las Vegas"
  PostalCode: "89150"
  StateProvince: "Nevada"
  Country: "United States"
  Latitude: "35.9279"
  Longitude: "-114.9721"
- ID: "58"
  Line1: "994 Anzinger Junction"
  Line2: 
  City: "Olympia"
  PostalCode: "98516"
  StateProvince: "Washington"
  Country: "United States"
  Latitude: "47.1126"
  Longitude: "-122.7794"
- ID: "59"
  Line1: "9 Ruskin Lane"
  Line2: 
  City: "Spokane"
  PostalCode: "99215"
  StateProvince: "Washington"
  Country: "United States"
  Latitude: "47.6536"
  Longitude: "-117.4317"
- ID: "60"
  Line1: "68 Judy Pass"
  Line2: 
  City: "Oklahoma City"
  PostalCode: "73124"
  StateProvince: "Oklahoma"
  Country: "United States"
  Latitude: "35.5514"
  Longitude: "-97.4075"
- ID: "61"
  Line1: "56 Sage Pass"
  Line2: 
  City: "Mobile"
  PostalCode: "36641"
  StateProvince: "Alabama"
  Country: "United States"
  Latitude: "30.6589"
  Longitude: "-88.178"
- ID: "62"
  Line1: "2029 4th Place"
  Line2: 
  City: "Charlotte"
  PostalCode: "28289"
  StateProvince: "North Carolina"
  Country: "United States"
  Latitude: "35.26"
  Longitude: "-80.8042"
- ID: "63"
  Line1: "212 Fair Oaks Lane"
  Line2: 
  City: "Norwalk"
  PostalCode: "6854"
  StateProvince: "Connecticut"
  Country: "United States"
  Latitude: "41.0957"
  Longitude: "-73.4285"
- ID: "64"
  Line1: "01929 Lakewood Gardens Street"
  Line2: 
  City: "Cincinnati"
  PostalCode: "45238"
  StateProvince: "Ohio"
  Country: "United States"
  Latitude: "39.1092"
  Longitude: "-84.6108"
- ID: "65"
  Line1: "9886 Westend Crossing"
  Line2: 
  City: "Boulder"
  PostalCode: "80310"
  StateProvince: "Colorado"
  Country: "United States"
  Latitude: "40.0878"
  Longitude: "-105.3735"
- ID: "66"
  Line1: "0 Kropf Place"
  Line2: 
  City: "White Plains"
  PostalCode: "10606"
  StateProvince: "New York"
  Country: "United States"
  Latitude: "41.0247"
  Longitude: "-73.7781"
- ID: "67"
  Line1: "2 Buell Junction"
  Line2: 
  City: "Lafayette"
  PostalCode: "70505"
  StateProvince: "Louisiana"
  Country: "United States"
  Latitude: "30.2023"
  Longitude: "-92.0188"
- ID: "68"
  Line1: "9681 Carey Road"
  Line2: 
  City: "New York City"
  PostalCode: "10029"
  StateProvince: "New York"
  Country: "United States"
  Latitude: "40.7918"
  Longitude: "-73.9448"
- ID: "69"
  Line1: "19 Surrey Crossing"
  Line2: 
  City: "Oakland"
  PostalCode: "94660"
  StateProvince: "California"
  Country: "United States"
  Latitude: "37.6802"
  Longitude: "-121.9215"
- ID: "70"
  Line1: "20642 Paget Lane"
  Line2: 
  City: "Philadelphia"
  PostalCode: "19115"
  StateProvince: "Pennsylvania"
  Country: "United States"
  Latitude: "40.0903"
  Longitude: "-75.041"
- ID: "71"
  Line1: "23595 Canary Alley"
  Line2: 
  City: "Tulsa"
  PostalCode: "74126"
  StateProvince: "Oklahoma"
  Country: "United States"
  Latitude: "36.2383"
  Longitude: "-95.9931"
- ID: "72"
  Line1: "505 Pearson Terrace"
  Line2: 
  City: "Greensboro"
  PostalCode: "27499"
  StateProvince: "North Carolina"
  Country: "United States"
  Latitude: "36.0807"
  Longitude: "-80.0244"
- ID: "73"
  Line1: "4 Stang Avenue"
  Line2: 
  City: "Waco"
  PostalCode: "76705"
  StateProvince: "Texas"
  Country: "United States"
  Latitude: "31.6403"
  Longitude: "-97.0963"
- ID: "74"
  Line1: "001 Basil Road"
  Line2: 
  City: "Dayton"
  PostalCode: "45432"
  StateProvince: "Ohio"
  Country: "United States"
  Latitude: "39.739"
  Longitude: "-84.0856"
- ID: "75"
  Line1: "581 5th Junction"
  Line2: 
  City: "Evansville"
  PostalCode: "47737"
  StateProvince: "Indiana"
  Country: "United States"
  Latitude: "37.9971"
  Longitude: "-87.575"
- ID: "76"
  Line1: "54870 Buena Vista Court"
  Line2: 
  City: "North Little Rock"
  PostalCode: "72199"
  StateProvince: "Arkansas"
  Country: "United States"
  Latitude: "34.8272"
  Longitude: "-92.2847"
- ID: "77"
  Line1: "459 Warrior Junction"
  Line2: 
  City: "Kissimmee"
  PostalCode: "34745"
  StateProvince: "Florida"
  Country: "United States"
  Latitude: "27.9953"
  Longitude: "-81.2593"
- ID: "78"
  Line1: "6240 Riverside Street"
  Line2: 
  City: "Hartford"
  PostalCode: "6183"
  StateProvince: "Connecticut"
  Country: "United States"
  Latitude: "41.7638"
  Longitude: "-72.673"
- ID: "79"
  Line1: "073 Mallory Avenue"
  Line2: 
  City: "Lees Summit"
  PostalCode: "64082"
  StateProvince: "Missouri"
  Country: "United States"
  Latitude: "38.8518"
  Longitude: "-94.3944"
- ID: "80"
  Line1: "3 Hovde Circle"
  Line2: 
  City: "Oklahoma City"
  PostalCode: "73129"
  StateProvince: "Oklahoma"
  Country: "United States"
  Latitude: "35.4312"
  Longitude: "-97.4913"
- ID: "81"
  Line1: "52654 Hudson Lane"
  Line2: 
  City: "Saint Paul"
  PostalCode: "55188"
  StateProvince: "Minnesota"
  Country: "United States"
  Latitude: "45.0059"
  Longitude: "-93.1059"
- ID: "82"
  Line1: "91842 Saint Paul Circle"
  Line2: 
  City: "Paterson"
  PostalCode: "7505"
  StateProvince: "New Jersey"
  Country: "United States"
  Latitude: "40.9166"
  Longitude: "-74.174"
- ID: "83"
  Line1: "1 Heffernan Street"
  Line2: 
  City: "Norwalk"
  PostalCode: "6859"
  StateProvince: "Connecticut"
  Country: "United States"
  Latitude: "41.3089"
  Longitude: "-73.3637"
- ID: "84"
  Line1: "48 Del Mar Drive"
  Line2: 
  City: "Denver"
  PostalCode: "80223"
  StateProvince: "Colorado"
  Country: "United States"
  Latitude: "39.7002"
  Longitude: "-105.0028"
- ID: "85"
  Line1: "541 Armistice Parkway"
  Line2: "Apt 9"
  City: "Des Moines"
  PostalCode: "50936"
  StateProvince: "Iowa"
  Country: "United States"
  Latitude: "41.6727"
  Longitude: "-93.5722"
- ID: "86"
  Line1: "1 Farmco Court"
  Line2: 
  City: "Washington"
  PostalCode: "20036"
  StateProvince: "District of Columbia"
  Country: "United States"
  Latitude: "38.9087"
  Longitude: "-77.0414"
- ID: "87"
  Line1: "3381 Autumn Leaf Drive"
  Line2: 
  City: "Los Angeles"
  PostalCode: "90030"
  StateProvince: "California"
  Country: "United States"
  Latitude: "33.7866"
  Longitude: "-118.2987"
- ID: "88"
  Line1: "117 Alpine Center"
  Line2: 
  City: "Brooklyn"
  PostalCode: "11241"
  StateProvince: "New York"
  Country: "United States"
  Latitude: "40.6451"
  Longitude: "-73.945"
- ID: "89"
  Line1: "7 Cherokee Park"
  Line2: 
  City: "Louisville"
  PostalCode: "40293"
  StateProvince: "Kentucky"
  Country: "United States"
  Latitude: "38.189"
  Longitude: "-85.6768"
- ID: "90"
  Line1: "963 North Hill"
  Line2: 
  City: "Santa Ana"
  PostalCode: "92705"
  StateProvince: "California"
  Country: "United States"
  Latitude: "33.754"
  Longitude: "-117.7919"
- ID: "91"
  Line1: "9213 Sloan Junction"
  Line2: 
  City: "Waterbury"
  PostalCode: "6721"
  StateProvince: "Connecticut"
  Country: "United States"
  Latitude: "41.3657"
  Longitude: "-72.9275"
- ID: "92"
  Line1: "2964 Kropf Road"
  Line2: 
  City: "Richmond"
  PostalCode: "23203"
  StateProvince: "Virginia"
  Country: "United States"
  Latitude: "37.5593"
  Longitude: "-77.4471"
- ID: "93"
  Line1: "8977 Hanson Road"
  Line2: 
  City: "Pittsburgh"
  PostalCode: "15230"
  StateProvince: "Pennsylvania"
  Country: "United States"
  Latitude: "40.4344"
  Longitude: "-80.0248"
- ID: "94"
  Line1: "155 Derek Alley"
  Line2: 
  City: "Minneapolis"
  PostalCode: "55446"
  StateProvince: "Minnesota"
  Country: "United States"
  Latitude: "45.04"
  Longitude: "-93.4865"
- ID: "95"
  Line1: "6 Farwell Alley"
  Line2: 
  City: "Oklahoma City"
  PostalCode: "73119"
  StateProvince: "Oklahoma"
  Country: "United States"
  Latitude: "35.421"
  Longitude: "-97.5616"
- ID: "96"
  Line1: "865 Maple Wood Junction"
  Line2: 
  City: "Fort Lauderdale"
  PostalCode: "33345"
  StateProvince: "Florida"
  Country: "United States"
  Latitude: "26.1654"
  Longitude: "-80.2959"
- ID: "97"
  Line1: "436 Claremont Hill"
  Line2: 
  City: "Detroit"
  PostalCode: "48224"
  StateProvince: "Michigan"
  Country: "United States"
  Latitude: "42.4098"
  Longitude: "-82.9441"
- ID: "98"
  Line1: "79327 Division Terrace"
  Line2: 
  City: "Tallahassee"
  PostalCode: "32309"
  StateProvince: "Florida"
  Country: "United States"
  Latitude: "30.5422"
  Longitude: "-84.1413"
- ID: "99"
  Line1: "9104 Thompson Park"
  Line2: 
  City: "Evansville"
  PostalCode: "47747"
  StateProvince: "Indiana"
  Country: "United States"
  Latitude: "37.9971"
  Longitude: "-87.575"
- ID: "100"
  Line1: "18 Manley Alley"
  Line2: 
  City: "Charleston"
  PostalCode: "25305"
  StateProvince: "West Virginia"
  Country: "United States"
  Latitude: "38.3358"
  Longitude: "-81.6123"
- ID: "101"
  Line1: "67 Springs Junction"
  Line2: 
  City: "Littleton"
  PostalCode: "80127"
  StateProvince: "Colorado"
  Country: "United States"
  Latitude: "39.592"
  Longitude: "-105.1328"
- ID: "102"
  Line1: "5 School Point"
  Line2: 
  City: "Monticello"
  PostalCode: "55565"
  StateProvince: "Minnesota"
  Country: "United States"
  Latitude: "45.2009"
  Longitude: "-93.8881"
- ID: "103"
  Line1: "0067 Hazelcrest Point"
  Line2: 
  City: "Naples"
  PostalCode: "34114"
  StateProvince: "Florida"
  Country: "United States"
  Latitude: "26.0143"
  Longitude: "-81.5856"
- ID: "104"
  Line1: "98582 Truax Junction"
  Line2: 
  City: "New York City"
  PostalCode: "10045"
  StateProvince: "New York"
  Country: "United States"
  Latitude: "40.7086"
  Longitude: "-74.0087"
- ID: "105"
  Line1: "741 Lotheville Junction"
  Line2: 
  City: "San Francisco"
  PostalCode: "94154"
  StateProvince: "California"
  Country: "United States"
  Latitude: "37.7848"
  Longitude: "-122.7278"
- ID: "106"
  Line1: "6 Dapin Junction"
  Line2: 
  City: "Santa Fe"
  PostalCode: "87592"
  StateProvince: "New Mexico"
  Country: "United States"
  Latitude: "35.5212"
  Longitude: "-105.9818"
- ID: "107"
  Line1: "34604 Monument Park"
  Line2: 
  City: "Topeka"
  PostalCode: "66642"
  StateProvince: "Kansas"
  Country: "United States"
  Latitude: "39.0429"
  Longitude: "-95.7697"
- ID: "108"
  Line1: "011 Maple Hill"
  Line2: 
  City: "Chicago"
  PostalCode: "60657"
  StateProvince: "Illinois"
  Country: "United States"
  Latitude: "41.9399"
  Longitude: "-87.6528"
- ID: "109"
  Line1: "14 Monterey Point"
  Line2: 
  City: "Lincoln"
  PostalCode: "68524"
  StateProvince: "Nebraska"
  Country: "United States"
  Latitude: "40.8529"
  Longitude: "-96.7943"
- ID: "110"
  Line1: "301 Lukken Way"
  Line2: 
  City: "Prescott"
  PostalCode: "86305"
  StateProvince: "Arizona"
  Country: "United States"
  Latitude: "34.8185"
  Longitude: "-112.9584"
- ID: "111"
  Line1: "0 Sunnyside Terrace"
  Line2: 
  City: "Richmond"
  PostalCode: "23208"
  StateProvince: "Virginia"
  Country: "United States"
  Latitude: "37.5593"
  Longitude: "-77.4471"
- ID: "112"
  Line1: "48996 Bay Place"
  Line2: 
  City: "Houston"
  PostalCode: "77271"
  StateProvince: "Texas"
  Country: "United States"
  Latitude: "29.834"
  Longitude: "-95.4342"
- ID: "113"
  Line1: "687 Bunker Hill Circle"
  Line2: 
  City: "Atlanta"
  PostalCode: "30358"
  StateProvince: "Georgia"
  Country: "United States"
  Latitude: "33.9982"
  Longitude: "-84.3411"
- ID: "114"
  Line1: "078 Lighthouse Bay Crossing"
  Line2: 
  City: "Kansas City"
  PostalCode: "64179"
  StateProvince: "Missouri"
  Country: "United States"
  Latitude: "39.035"
  Longitude: "-94.3567"
- ID: "115"
  Line1: "1 Sloan Hill"
  Line2: 
  City: "Roanoke"
  PostalCode: "24020"
  StateProvince: "Virginia"
  Country: "United States"
  Latitude: "37.3589"
  Longitude: "-79.9448"
- ID: "116"
  Line1: "058 Park Meadow Place"
  Line2: 
  City: "Hampton"
  PostalCode: "23663"
  StateProvince: "Virginia"
  Country: "United States"
  Latitude: "37.0318"
  Longitude: "-76.3199"
- ID: "117"
  Line1: "135 Crescent Oaks Terrace"
  Line2: 
  City: "Jamaica"
  PostalCode: "11447"
  StateProvince: "New York"
  Country: "United States"
  Latitude: "40.6914"
  Longitude: "-73.8061"
- ID: "118"
  Line1: "7 Magdeline Junction"
  Line2: 
  City: "Cedar Rapids"
  PostalCode: "52405"
  StateProvince: "Iowa"
  Country: "United States"
  Latitude: "41.9804"
  Longitude: "-91.7098"
- ID: "119"
  Line1: "16957 Jackson Terrace"
  Line2: 
  City: "Pittsburgh"
  PostalCode: "15240"
  StateProvince: "Pennsylvania"
  Country: "United States"
  Latitude: "40.4344"
  Longitude: "-80.0248"
- ID: "120"
  Line1: "68173 Memorial Trail"
  Line2: 
  City: "New York City"
  PostalCode: "10060"
  StateProvince: "New York"
  Country: "United States"
  Latitude: "40.7808"
  Longitude: "-73.9772"
- ID: "121"
  Line1: "13 Eliot Drive"
  Line2: 
  City: "Wilmington"
  PostalCode: "28405"
  StateProvince: "North Carolina"
  Country: "United States"
  Latitude: "34.2651"
  Longitude: "-77.867"
- ID: "122"
  Line1: "969 Washington Alley"
  Line2: 
  City: "Grand Rapids"
  PostalCode: "49518"
  StateProvince: "Michigan"
  Country: "United States"
  Latitude: "43.0314"
  Longitude: "-85.5503"
- ID: "123"
  Line1: "7 Hollow Ridge Hill"
  Line2: 
  City: "Iowa City"
  PostalCode: "52245"
  StateProvince: "Iowa"
  Country: "United States"
  Latitude: "41.6649"
  Longitude: "-91.5151"
- ID: "124"
  Line1: "019 Toban Parkway"
  Line2: 
  City: "Aurora"
  PostalCode: "80015"
  StateProvince: "Colorado"
  Country: "United States"
  Latitude: "39.6255"
  Longitude: "-104.7874"
- ID: "125"
  Line1: "51612 Fremont Terrace"
  Line2: 
  City: "Brooklyn"
  PostalCode: "11220"
  StateProvince: "New York"
  Country: "United States"
  Latitude: "40.6412"
  Longitude: "-74.0133"
- ID: "126"
  Line1: "62 Bunting Parkway"
  Line2: 
  City: "New York City"
  PostalCode: "10105"
  StateProvince: "New York"
  Country: "United States"
  Latitude: "40.7628"
  Longitude: "-73.9785"
- ID: "127"
  Line1: "04461 5th Junction"
  Line2: 
  City: "Wichita"
  PostalCode: "67215"
  StateProvince: "Kansas"
  Country: "United States"
  Latitude: "37.6333"
  Longitude: "-97.425"
- ID: "128"
  Line1: "09 Red Cloud Lane"
  Line2: 
  City: "Inglewood"
  PostalCode: "90305"
  StateProvince: "California"
  Country: "United States"
  Latitude: "33.9583"
  Longitude: "-118.3258"
- ID: "129"
  Line1: "9 Farragut Alley"
  Line2: 
  City: "Anaheim"
  PostalCode: "92805"
  StateProvince: "California"
  Country: "United States"
  Latitude: "33.8359"
  Longitude: "-117.9086"
- ID: "130"
  Line1: "89 Judy Drive"
  Line2: 
  City: "Washington"
  PostalCode: "20319"
  StateProvince: "District of Columbia"
  Country: "United States"
  Latitude: "38.8667"
  Longitude: "-77.0166"
- ID: "131"
  Line1: "968 North Parkway"
  Line2: 
  City: "Roanoke"
  PostalCode: "24040"
  StateProvince: "Virginia"
  Country: "United States"
  Latitude: "37.2742"
  Longitude: "-79.9579"
- ID: "132"
  Line1: "41047 Badeau Point"
  Line2: 
  City: "Des Moines"
  PostalCode: "50330"
  StateProvince: "Iowa"
  Country: "United States"
  Latitude: "41.6727"
  Longitude: "-93.5722"
- ID: "133"
  Line1: "139 Killdeer Street"
  Line2: 
  City: "Charleston"
  PostalCode: "25389"
  StateProvince: "West Virginia"
  Country: "United States"
  Latitude: "38.354"
  Longitude: "-81.6394"
- ID: "134"
  Line1: "0 Delladonna Alley"
  Line2: "Apt 33"
  City: "Charlotte"
  PostalCode: "28210"
  StateProvince: "North Carolina"
  Country: "United States"
  Latitude: "35.1316"
  Longitude: "-80.8577"
- ID: "135"
  Line1: "86076 Havey Avenue"
  Line2: 
  City: "Alexandria"
  PostalCode: "71307"
  StateProvince: "Louisiana"
  Country: "United States"
  Latitude: "31.2034"
  Longitude: "-92.5269"
- ID: "136"
  Line1: "7 Talisman Parkway"
  Line2: 
  City: "Fort Wayne"
  PostalCode: "46857"
  StateProvince: "Indiana"
  Country: "United States"
  Latitude: "41.0938"
  Longitude: "-85.0707"
- ID: "137"
  Line1: "32858 Warrior Trail"
  Line2: 
  City: "Boca Raton"
  PostalCode: "33487"
  StateProvince: "Florida"
  Country: "United States"
  Latitude: "26.4116"
  Longitude: "-80.0928"
- ID: "138"
  Line1: "4367 Sunfield Parkway"
  Line2: 
  City: "Charlotte"
  PostalCode: "28235"
  StateProvince: "North Carolina"
  Country: "United States"
  Latitude: "35.26"
  Longitude: "-80.8042"
- ID: "139"
  Line1: "64264 Debs Circle"
  Line2: 
  City: "Oakland"
  PostalCode: "94616"
  StateProvince: "California"
  Country: "United States"
  Latitude: "37.8044"
  Longitude: "-122.2698"
- ID: "140"
  Line1: "921 Monica Place"
  Line2: 
  City: "Tampa"
  PostalCode: "33610"
  StateProvince: "Florida"
  Country: "United States"
  Latitude: "27.9951"
  Longitude: "-82.4046"
- ID: "141"
  Line1: "5927 Marcy Way"
  Line2: 
  City: "Saint Louis"
  PostalCode: "63180"
  StateProvince: "Missouri"
  Country: "United States"
  Latitude: "38.6531"
  Longitude: "-90.2435"
- ID: "142"
  Line1: "584 Kipling Circle"
  Line2: 
  City: "Albany"
  PostalCode: "12255"
  StateProvince: "New York"
  Country: "United States"
  Latitude: "42.6149"
  Longitude: "-73.9708"
- ID: "143"
  Line1: "5358 Heffernan Street"
  Line2: 
  City: "Dayton"
  PostalCode: "45490"
  StateProvince: "Ohio"
  Country: "United States"
  Latitude: "39.7505"
  Longitude: "-84.2686"
- ID: "144"
  Line1: "19 Portage Way"
  Line2: 
  City: "Atlanta"
  PostalCode: "30351"
  StateProvince: "Georgia"
  Country: "United States"
  Latitude: "33.8444"
  Longitude: "-84.474"
- ID: "145"
  Line1: "239 Golf Circle"
  Line2: 
  City: "Alexandria"
  PostalCode: "22313"
  StateProvince: "Virginia"
  Country: "United States"
  Latitude: "38.8158"
  Longitude: "-77.09"
- ID: "146"
  Line1: "1788 Fieldstone Crossing"
  Line2: 
  City: "Shawnee Mission"
  PostalCode: "66215"
  StateProvince: "Kansas"
  Country: "United States"
  Latitude: "38.949"
  Longitude: "-94.7405"
- ID: "147"
  Line1: "26 Fuller Circle"
  Line2: 
  City: "Olympia"
  PostalCode: "98506"
  StateProvince: "Washington"
  Country: "United States"
  Latitude: "47.1042"
  Longitude: "-122.87"
- ID: "148"
  Line1: "45295 Columbus Terrace"
  Line2: 
  City: "San Diego"
  PostalCode: "92110"
  StateProvince: "California"
  Country: "United States"
  Latitude: "32.7635"
  Longitude: "-117.2028"
- ID: "149"
  Line1: "121 Continental Crossing"
  Line2: 
  City: "Tallahassee"
  PostalCode: "32314"
  StateProvince: "Florida"
  Country: "United States"
  Latitude: "30.4793"
  Longitude: "-84.3462"
- ID: "150"
  Line1: "37 Starling Trail"
  Line2: 
  City: "Jackson"
  PostalCode: "39296"
  StateProvince: "Mississippi"
  Country: "United States"
  Latitude: "32.3113"
  Longitude: "-90.3972"
- ID: "151"
  Line1: "40999 Morrow Road"
  Line2: 
  City: "Los Angeles"
  PostalCode: "90071"
  StateProvince: "California"
  Country: "United States"
  Latitude: "34.0529"
  Longitude: "-118.2549"
- ID: "152"
  Line1: "6440 Daystar Street"
  Line2: 
  City: "Houston"
  PostalCode: "77055"
  StateProvince: "Texas"
  Country: "United States"
  Latitude: "29.7971"
  Longitude: "-95.4958"
- ID: "153"
  Line1: "9 Shasta Place"
  Line2: 
  City: "Dallas"
  PostalCode: "75353"
  StateProvince: "Texas"
  Country: "United States"
  Latitude: "32.7673"
  Longitude: "-96.7776"
- ID: "154"
  Line1: "3226 Arizona Lane"
  Line2: 
  City: "Houston"
  PostalCode: "77010"
  StateProvince: "Texas"
  Country: "United States"
  Latitude: "29.7543"
  Longitude: "-95.3609"
- ID: "155"
  Line1: "79559 Forest Trail"
  Line2: 
  City: "Carson City"
  PostalCode: "89706"
  StateProvince: "Nevada"
  Country: "United States"
  Latitude: "39.2025"
  Longitude: "-119.7526"
- ID: "156"
  Line1: "0405 Saint Paul Pass"
  Line2: 
  City: "El Paso"
  PostalCode: "88525"
  StateProvince: "Texas"
  Country: "United States"
  Latitude: "31.6948"
  Longitude: "-106.3"
- ID: "157"
  Line1: "864 Milwaukee Plaza"
  Line2: 
  City: "Fort Lauderdale"
  PostalCode: "33355"
  StateProvince: "Florida"
  Country: "United States"
  Latitude: "26.1457"
  Longitude: "-80.4483"
- ID: "158"
  Line1: "49194 Anniversary Center"
  Line2: 
  City: "Humble"
  PostalCode: "77346"
  StateProvince: "Texas"
  Country: "United States"
  Latitude: "30.0042"
  Longitude: "-95.1728"
- ID: "159"
  Line1: "47183 3rd Avenue"
  Line2: 
  City: "Lincoln"
  PostalCode: "68531"
  StateProvince: "Nebraska"
  Country: "United States"
  Latitude: "40.9008"
  Longitude: "-96.7201"
- ID: "160"
  Line1: "4702 Sundown Drive"
  Line2: 
  City: "New York City"
  PostalCode: "10039"
  StateProvince: "New York"
  Country: "United States"
  Latitude: "40.8265"
  Longitude: "-73.9383"
- ID: "161"
  Line1: "037 Anthes Parkway"
  Line2: 
  City: "Omaha"
  PostalCode: "68197"
  StateProvince: "Nebraska"
  Country: "United States"
  Latitude: "41.249"
  Longitude: "-96.0274"
- ID: "162"
  Line1: "104 Crest Line Way"
  Line2: 
  City: "Buffalo"
  PostalCode: "14263"
  StateProvince: "New York"
  Country: "United States"
  Latitude: "42.7684"
  Longitude: "-78.8871"
- ID: "163"
  Line1: "0713 Walton Parkway"
  Line2: 
  City: "Austin"
  PostalCode: "78789"
  StateProvince: "Texas"
  Country: "United States"
  Latitude: "30.3264"
  Longitude: "-97.7713"
- ID: "164"
  Line1: "93285 Manufacturers Junction"
  Line2: 
  City: "Mobile"
  PostalCode: "36616"
  StateProvince: "Alabama"
  Country: "United States"
  Latitude: "30.671"
  Longitude: "-88.1267"
- ID: "165"
  Line1: "4452 Anderson Parkway"
  Line2: 
  City: "Palo Alto"
  PostalCode: "94302"
  StateProvince: "California"
  Country: "United States"
  Latitude: "37.1894"
  Longitude: "-121.7053"
- ID: "166"
  Line1: "631 Pleasure Hill"
  Line2: 
  City: "El Paso"
  PostalCode: "79977"
  StateProvince: "Texas"
  Country: "United States"
  Latitude: "31.6948"
  Longitude: "-106.3"
- ID: "167"
  Line1: "79 Tennyson Trail"
  Line2: 
  City: "New York City"
  PostalCode: "10203"
  StateProvince: "New York"
  Country: "United States"
  Latitude: "40.7808"
  Longitude: "-73.9772"
- ID: "168"
  Line1: "095 Westend Plaza"
  Line2: 
  City: "New York City"
  PostalCode: "10280"
  StateProvince: "New York"
  Country: "United States"
  Latitude: "40.7105"
  Longitude: "-74.0163"
- ID: "169"
  Line1: "4 Continental Point"
  Line2: 
  City: "Salem"
  PostalCode: "97306"
  StateProvince: "Oregon"
  Country: "United States"
  Latitude: "44.8685"
  Longitude: "-123.0438"
- ID: "170"
  Line1: "2 Dennis Point"
  Line2: 
  City: "Detroit"
  PostalCode: "48275"
  StateProvince: "Michigan"
  Country: "United States"
  Latitude: "42.2399"
  Longitude: "-83.1508"
- ID: "171"
  Line1: "4 Northridge Park"
  Line2: 
  City: "Naples"
  PostalCode: "33963"
  StateProvince: "Florida"
  Country: "United States"
  Latitude: "26.2626"
  Longitude: "-81.8071"
- ID: "172"
  Line1: "06750 Schurz Hill"
  Line2: 
  City: "Wilkes Barre"
  PostalCode: "18763"
  StateProvince: "Pennsylvania"
  Country: "United States"
  Latitude: "41.2722"
  Longitude: "-75.8801"
- ID: "173"
  Line1: "45987 Drewry Plaza"
  Line2: 
  City: "Winston Salem"
  PostalCode: "27150"
  StateProvince: "North Carolina"
  Country: "United States"
  Latitude: "36.0275"
  Longitude: "-80.2073"
- ID: "174"
  Line1: "43970 Reindahl Drive"
  Line2: 
  City: "Macon"
  PostalCode: "31210"
  StateProvince: "Georgia"
  Country: "United States"
  Latitude: "32.8926"
  Longitude: "-83.7455"
- ID: "175"
  Line1: "6 Spenser Center"
  Line2: 
  City: "Modesto"
  PostalCode: "95397"
  StateProvince: "California"
  Country: "United States"
  Latitude: "37.6566"
  Longitude: "-121.0191"
- ID: "176"
  Line1: "9 Laurel Court"
  Line2: 
  City: "Washington"
  PostalCode: "20525"
  StateProvince: "District of Columbia"
  Country: "United States"
  Latitude: "38.8933"
  Longitude: "-77.0146"
- ID: "177"
  Line1: "7 Service Parkway"
  Line2: 
  City: "Las Vegas"
  PostalCode: "89110"
  StateProvince: "Nevada"
  Country: "United States"
  Latitude: "36.173"
  Longitude: "-115.0669"
- ID: "178"
  Line1: "2908 Hansons Court"
  Line2: 
  City: "Saint Cloud"
  PostalCode: "56398"
  StateProvince: "Minnesota"
  Country: "United States"
  Latitude: "45.5289"
  Longitude: "-94.5933"
- ID: "179"
  Line1: "405 Blaine Hill"
  Line2: 
  City: "Seattle"
  PostalCode: "98195"
  StateProvince: "Washington"
  Country: "United States"
  Latitude: "47.6564"
  Longitude: "-122.3048"
- ID: "180"
  Line1: "2 Brown Hill"
  Line2: 
  City: "Trenton"
  PostalCode: "8650"
  StateProvince: "New Jersey"
  Country: "United States"
  Latitude: "40.2805"
  Longitude: "-74.712"
- ID: "181"
  Line1: "3 Lindbergh Drive"
  Line2: 
  City: "Memphis"
  PostalCode: "38136"
  StateProvince: "Tennessee"
  Country: "United States"
  Latitude: "35.2017"
  Longitude: "-89.9715"
- ID: "182"
  Line1: "4 Garrison Road"
  Line2: 
  City: "Corpus Christi"
  PostalCode: "78475"
  StateProvince: "Texas"
  Country: "United States"
  Latitude: "27.777"
  Longitude: "-97.4632"
- ID: "183"
  Line1: "96947 Summerview Terrace"
  Line2: 
  City: "Fort Lauderdale"
  PostalCode: "33320"
  StateProvince: "Florida"
  Country: "United States"
  Latitude: "26.1625"
  Longitude: "-80.2582"
- ID: "184"
  Line1: "99 Hoepker Street"
  Line2: 
  City: "Miami"
  PostalCode: "33124"
  StateProvince: "Florida"
  Country: "United States"
  Latitude: "25.5584"
  Longitude: "-80.4582"
- ID: "185"
  Line1: "49 Sullivan Hill"
  Line2: 
  City: "Las Vegas"
  PostalCode: "89115"
  StateProvince: "Nevada"
  Country: "United States"
  Latitude: "36.2158"
  Longitude: "-115.0671"
- ID: "186"
  Line1: "209 Fulton Park"
  Line2: 
  City: "Sacramento"
  PostalCode: "95833"
  StateProvince: "California"
  Country: "United States"
  Latitude: "38.6157"
  Longitude: "-121.5053"
- ID: "187"
  Line1: "37 Spohn Lane"
  Line2: 
  City: "Oklahoma City"
  PostalCode: "73135"
  StateProvince: "Oklahoma"
  Country: "United States"
  Latitude: "35.411"
  Longitude: "-97.4388"
- ID: "188"
  Line1: "8733 Riverside Way"
  Line2: 
  City: "Pittsburgh"
  PostalCode: "15261"
  StateProvince: "Pennsylvania"
  Country: "United States"
  Latitude: "40.4344"
  Longitude: "-80.0248"
- ID: "189"
  Line1: "3 Leroy Lane"
  Line2: 
  City: "Buffalo"
  PostalCode: "14220"
  StateProvince: "New York"
  Country: "United States"
  Latitude: "42.8441"
  Longitude: "-78.8182"
- ID: "190"
  Line1: "8583 Ilene Court"
  Line2: 
  City: "Santa Barbara"
  PostalCode: "93111"
  StateProvince: "California"
  Country: "United States"
  Latitude: "34.4453"
  Longitude: "-119.8025"
- ID: "191"
  Line1: "33638 Oriole Avenue"
  Line2: 
  City: "Colorado Springs"
  PostalCode: "80995"
  StateProvince: "Colorado"
  Country: "United States"
  Latitude: "38.8247"
  Longitude: "-104.562"
- ID: "192"
  Line1: "93 Dennis Point"
  Line2: 
  City: "Paterson"
  PostalCode: "7505"
  StateProvince: "New Jersey"
  Country: "United States"
  Latitude: "40.9166"
  Longitude: "-74.174"
- ID: "193"
  Line1: "9 Washington Court"
  Line2: 
  City: "Chicago"
  PostalCode: "60630"
  StateProvince: "Illinois"
  Country: "United States"
  Latitude: "41.9699"
  Longitude: "-87.7603"
- ID: "194"
  Line1: "98 Ridgeview Circle"
  Line2: 
  City: "Boston"
  PostalCode: "2203"
  StateProvince: "Massachusetts"
  Country: "United States"
  Latitude: "42.3615"
  Longitude: "-71.0604"
- ID: "195"
  Line1: "0866 Cordelia Point"
  Line2: 
  City: "Austin"
  PostalCode: "78732"
  StateProvince: "Texas"
  Country: "United States"
  Latitude: "30.3752"
  Longitude: "-97.9007"
- ID: "196"
  Line1: "99071 Marcy Avenue"
  Line2: 
  City: "Louisville"
  PostalCode: "40205"
  StateProvince: "Kentucky"
  Country: "United States"
  Latitude: "38.2222"
  Longitude: "-85.6885"
- ID: "197"
  Line1: "25891 Caliangt Street"
  Line2: "#10"
  City: "Orange"
  PostalCode: "92867"
  StateProvince: "California"
  Country: "United States"
  Latitude: "33.811"
  Longitude: "-117.8493"
- ID: "198"
  Line1: "977 Alpine Plaza"
  Line2: 
  City: "Miami"
  PostalCode: "33169"
  StateProvince: "Florida"
  Country: "United States"
  Latitude: "25.9441"
  Longitude: "-80.2144"
- ID: "199"
  Line1: "4411 Norway Maple Park"
  Line2: 
  City: "Tucson"
  PostalCode: "85710"
  StateProvince: "Arizona"
  Country: "United States"
  Latitude: "32.2138"
  Longitude: "-110.824"
- ID: "200"
  Line1: "8706 Surrey Way"
  Line2: 
  City: "Great Neck"
  PostalCode: "11024"
  StateProvince: "New York"
  Country: "United States"
  Latitude: "40.8171"
  Longitude: "-73.7416"
- ID: "201"
  Line1: "0 Brown Crossing"
  Line2: 
  City: "Fort Worth"
  PostalCode: "76178"
  StateProvince: "Texas"
  Country: "United States"
  Latitude: "32.7714"
  Longitude: "-97.2915"
- ID: "202"
  Line1: "1223 Maple Avenue"
  Line2: 
  City: "Waterbury"
  PostalCode: "6726"
  StateProvince: "Connecticut"
  Country: "United States"
  Latitude: "41.3657"
  Longitude: "-72.9275"
- ID: "203"
  Line1: "28717 Colorado Alley"
  Line2: 
  City: "Atlanta"
  PostalCode: "31165"
  StateProvince: "Georgia"
  Country: "United States"
  Latitude: "33.7629"
  Longitude: "-84.4226"
- ID: "204"
  Line1: "0514 Shasta Circle"
  Line2: 
  City: "Syracuse"
  PostalCode: "13224"
  StateProvince: "New York"
  Country: "United States"
  Latitude: "43.0421"
  Longitude: "-76.1046"
- ID: "205"
  Line1: "5749 Butternut Point"
  Line2: 
  City: "Chicago"
  PostalCode: "60674"
  StateProvince: "Illinois"
  Country: "United States"
  Latitude: "41.8119"
  Longitude: "-87.6873"
- ID: "206"
  Line1: "6683 Moulton Street"
  Line2: 
  City: "Oklahoma City"
  PostalCode: "73119"
  StateProvince: "Oklahoma"
  Country: "United States"
  Latitude: "35.421"
  Longitude: "-97.5616"
- ID: "207"
  Line1: "33 Darwin Court"
  Line2: 
  City: "Milwaukee"
  PostalCode: "53220"
  StateProvince: "Wisconsin"
  Country: "United States"
  Latitude: "42.9559"
  Longitude: "-87.9933"
- ID: "208"
  Line1: "49 Reinke Crossing"
  Line2: 
  City: "Arlington"
  PostalCode: "22225"
  StateProvince: "Virginia"
  Country: "United States"
  Latitude: "38.8808"
  Longitude: "-77.113"
- ID: "209"
  Line1: "38936 Knutson Lane"
  Line2: 
  City: "Columbus"
  PostalCode: "43284"
  StateProvince: "Ohio"
  Country: "United States"
  Latitude: "39.969"
  Longitude: "-83.0114"
- ID: "210"
  Line1: "97357 Transport Center"
  Line2: 
  City: "San Antonio"
  PostalCode: "78220"
  StateProvince: "Texas"
  Country: "United States"
  Latitude: "29.4106"
  Longitude: "-98.4128"
- ID: "211"
  Line1: "6 Coolidge Pass"
  Line2: 
  City: "Saint Petersburg"
  PostalCode: "33737"
  StateProvince: "Florida"
  Country: "United States"
  Latitude: "27.8918"
  Longitude: "-82.7248"
- ID: "212"
  Line1: "0 Vera Drive"
  Line2: 
  City: "Billings"
  PostalCode: "59105"
  StateProvince: "Montana"
  Country: "United States"
  Latitude: "45.9497"
  Longitude: "-108.599"
- ID: "213"
  Line1: "7332 Prairie Rose Place"
  Line2: 
  City: "Lima"
  PostalCode: "45807"
  StateProvince: "Ohio"
  Country: "United States"
  Latitude: "40.7955"
  Longitude: "-84.1383"
- ID: "214"
  Line1: "46 Macpherson Drive"
  Line2: 
  City: "El Paso"
  PostalCode: "88579"
  StateProvince: "Texas"
  Country: "United States"
  Latitude: "31.6948"
  Longitude: "-106.3"
- ID: "215"
  Line1: "852 Twin Pines Way"
  Line2: 
  City: "Miami"
  PostalCode: "33164"
  StateProvince: "Florida"
  Country: "United States"
  Latitude: "25.5584"
  Longitude: "-80.4582"
- ID: "216"
  Line1: "49 Lindbergh Junction"
  Line2: 
  City: "Shawnee Mission"
  PostalCode: "66225"
  StateProvince: "Kansas"
  Country: "United States"
  Latitude: "38.8999"
  Longitude: "-94.832"
- ID: "217"
  Line1: "76100 Larry Junction"
  Line2: 
  City: "Tucson"
  PostalCode: "85737"
  StateProvince: "Arizona"
  Country: "United States"
  Latitude: "32.4142"
  Longitude: "-110.9466"
- ID: "218"
  Line1: "9 Susan Alley"
  Line2: 
  City: "Atlanta"
  PostalCode: "30356"
  StateProvince: "Georgia"
  Country: "United States"
  Latitude: "33.8913"
  Longitude: "-84.0746"
- ID: "219"
  Line1: "58846 Crownhardt Street"
  Line2: 
  City: "Port Charlotte"
  PostalCode: "33954"
  StateProvince: "Florida"
  Country: "United States"
  Latitude: "27.0228"
  Longitude: "-82.1108"
- ID: "220"
  Line1: "46414 Delaware Plaza"
  Line2: 
  City: "Inglewood"
  PostalCode: "90305"
  StateProvince: "California"
  Country: "United States"
  Latitude: "33.9583"
  Longitude: "-118.3258"
- ID: "221"
  Line1: "3120 Bartelt Alley"
  Line2: 
  City: "Maple Plain"
  PostalCode: "55579"
  StateProvince: "Minnesota"
  Country: "United States"
  Latitude: "45.0159"
  Longitude: "-93.4719"
- ID: "222"
  Line1: "4726 Onsgard Parkway"
  Line2: 
  City: "Salt Lake City"
  PostalCode: "84170"
  StateProvince: "Utah"
  Country: "United States"
  Latitude: "40.6681"
  Longitude: "-111.9083"
- ID: "223"
  Line1: "3 Dennis Pass"
  Line2: 
  City: "Vero Beach"
  PostalCode: "32969"
  StateProvince: "Florida"
  Country: "United States"
  Latitude: "27.709"
  Longitude: "-80.5726"
- ID: "224"
  Line1: "229 Surrey Circle"
  Line2: 
  City: "Albuquerque"
  PostalCode: "87110"
  StateProvince: "New Mexico"
  Country: "United States"
  Latitude: "35.1104"
  Longitude: "-106.5781"
- ID: "225"
  Line1: "8836 Thompson Street"
  Line2: 
  City: "Roanoke"
  PostalCode: "24020"
  StateProvince: "Virginia"
  Country: "United States"
  Latitude: "37.3589"
  Longitude: "-79.9448"
- ID: "226"
  Line1: "23 Havey Street"
  Line2: 
  City: "Orlando"
  PostalCode: "32835"
  StateProvince: "Florida"
  Country: "United States"
  Latitude: "28.5289"
  Longitude: "-81.4787"
- ID: "227"
  Line1: "84713 Russell Circle"
  Line2: 
  City: "Cambridge"
  PostalCode: "2142"
  StateProvince: "Massachusetts"
  Country: "United States"
  Latitude: "42.362"
  Longitude: "-71.083"
- ID: "228"
  Line1: "5382 Fordem Plaza"
  Line2: 
  City: "North Las Vegas"
  PostalCode: "89087"
  StateProvince: "Nevada"
  Country: "United States"
  Latitude: "36.2204"
  Longitude: "-115.1458"
- ID: "229"
  Line1: "3235 Scofield Terrace"
  Line2: 
  City: "Washington"
  PostalCode: "20226"
  StateProvince: "District of Columbia"
  Country: "United States"
  Latitude: "38.8933"
  Longitude: "-77.0146"
- ID: "230"
  Line1: "62596 Pierstorff Hill"
  Line2: 
  City: "Whittier"
  PostalCode: "90610"
  StateProvince: "California"
  Country: "United States"
  Latitude: "33.7866"
  Longitude: "-118.2987"
- ID: "231"
  Line1: "3149 Reindahl Street"
  Line2: 
  City: "Roanoke"
  PostalCode: "24048"
  StateProvince: "Virginia"
  Country: "United States"
  Latitude: "37.2742"
  Longitude: "-79.9579"
- ID: "232"
  Line1: "2787 Garrison Trail"
  Line2: 
  City: "Duluth"
  PostalCode: "30096"
  StateProvince: "Georgia"
  Country: "United States"
  Latitude: "33.9845"
  Longitude: "-84.1529"
- ID: "233"
  Line1: "586 Prairieview Plaza"
  Line2: 
  City: "Pensacola"
  PostalCode: "32526"
  StateProvince: "Florida"
  Country: "United States"
  Latitude: "30.4756"
  Longitude: "-87.3179"
- ID: "234"
  Line1: "3 Grover Terrace"
  Line2: 
  City: "Miami"
  PostalCode: "33142"
  StateProvince: "Florida"
  Country: "United States"
  Latitude: "25.813"
  Longitude: "-80.232"
- ID: "235"
  Line1: "55616 Thompson Drive"
  Line2: 
  City: "South Bend"
  PostalCode: "46699"
  StateProvince: "Indiana"
  Country: "United States"
  Latitude: "41.5968"
  Longitude: "-86.293"
- ID: "236"
  Line1: "03 Schiller Alley"
  Line2: 
  City: "Peoria"
  PostalCode: "61640"
  StateProvince: "Illinois"
  Country: "United States"
  Latitude: "40.7857"
  Longitude: "-89.6177"
- ID: "237"
  Line1: "79240 Briar Crest Alley"
  Line2: "Suite 22"
  City: "Metairie"
  PostalCode: "70033"
  StateProvince: "Louisiana"
  Country: "United States"
  Latitude: "29.6779"
  Longitude: "-90.0901"
- ID: "238"
  Line1: "33917 Texas Avenue"
  Line2: 
  City: "Minneapolis"
  PostalCode: "55407"
  StateProvince: "Minnesota"
  Country: "United States"
  Latitude: "44.9378"
  Longitude: "-93.2545"
- ID: "239"
  Line1: "8 Oakridge Trail"
  Line2: 
  City: "Reno"
  PostalCode: "89550"
  StateProvince: "Nevada"
  Country: "United States"
  Latitude: "39.5387"
  Longitude: "-119.8225"
- ID: "240"
  Line1: "0 Ruskin Way"
  Line2: 
  City: "Fort Worth"
  PostalCode: "76105"
  StateProvince: "Texas"
  Country: "United States"
  Latitude: "32.7233"
  Longitude: "-97.269"
- ID: "241"
  Line1: "62593 Banding Terrace"
  Line2: 
  City: "Las Vegas"
  PostalCode: "89115"
  StateProvince: "Nevada"
  Country: "United States"
  Latitude: "36.2158"
  Longitude: "-115.0671"
- ID: "242"
  Line1: "83 Grim Lane"
  Line2: 
  City: "Miami Beach"
  PostalCode: "33141"
  StateProvince: "Florida"
  Country: "United States"
  Latitude: "25.8486"
  Longitude: "-80.1446"
- ID: "243"
  Line1: "82 Lukken Avenue"
  Line2: 
  City: "New Haven"
  PostalCode: "6505"
  StateProvince: "Connecticut"
  Country: "United States"
  Latitude: "41.3057"
  Longitude: "-72.7799"
- ID: "244"
  Line1: "88696 Randy Drive"
  Line2: 
  City: "Tallahassee"
  PostalCode: "32309"
  StateProvince: "Florida"
  Country: "United States"
  Latitude: "30.5422"
  Longitude: "-84.1413"
- ID: "245"
  Line1: "6413 Lotheville Street"
  Line2: 
  City: "Boston"
  PostalCode: "2109"
  StateProvince: "Massachusetts"
  Country: "United States"
  Latitude: "42.36"
  Longitude: "-71.0545"
- ID: "246"
  Line1: "8153 Ramsey Drive"
  Line2: 
  City: "Frederick"
  PostalCode: "21705"
  StateProvince: "Maryland"
  Country: "United States"
  Latitude: "39.47"
  Longitude: "-77.3921"
- ID: "247"
  Line1: "6 Northfield Drive"
  Line2: 
  City: "Nashville"
  PostalCode: "37240"
  StateProvince: "Tennessee"
  Country: "United States"
  Latitude: "36.1866"
  Longitude: "-86.7852"
- ID: "248"
  Line1: "7 Thompson Court"
  Line2: 
  City: "Odessa"
  PostalCode: "79769"
  StateProvince: "Texas"
  Country: "United States"
  Latitude: "31.7466"
  Longitude: "-102.567"
- ID: "249"
  Line1: "6 Kings Trail"
  Line2: 
  City: "Mobile"
  PostalCode: "36628"
  StateProvince: "Alabama"
  Country: "United States"
  Latitude: "30.6589"
  Longitude: "-88.178"
- ID: "250"
  Line1: "00 Esker Pass"
  Line2: 
  City: "Reading"
  PostalCode: "19605"
  StateProvince: "Pennsylvania"
  Country: "United States"
  Latitude: "40.3886"
  Longitude: "-75.9328"
- ID: "251"
  Line1: "72 Talisman Plaza"
  Line2: 
  City: "San Antonio"
  PostalCode: "78245"
  StateProvince: "Texas"
  Country: "United States"
  Latitude: "29.4189"
  Longitude: "-98.6895"
- ID: "252"
  Line1: "685 Buell Lane"
  Line2: 
  City: "Knoxville"
  PostalCode: "37995"
  StateProvince: "Tennessee"
  Country: "United States"
  Latitude: "35.9901"
  Longitude: "-83.9622"
- ID: "253"
  Line1: "354 Green Ridge Road"
  Line2: 
  City: "Lincoln"
  PostalCode: "68510"
  StateProvince: "Nebraska"
  Country: "United States"
  Latitude: "40.8063"
  Longitude: "-96.6545"
- ID: "254"
  Line1: "8399 Holy Cross Alley"
  Line2: 
  City: "Pasadena"
  PostalCode: "91125"
  StateProvince: "California"
  Country: "United States"
  Latitude: "33.7866"
  Longitude: "-118.2987"
- ID: "255"
  Line1: "7987 Dawn Pass"
  Line2: 
  City: "Des Moines"
  PostalCode: "50369"
  StateProvince: "Iowa"
  Country: "United States"
  Latitude: "41.6727"
  Longitude: "-93.5722"
- ID: "256"
  Line1: "4 Harbort Lane"
  Line2: 
  City: "Jamaica"
  PostalCode: "11480"
  StateProvince: "New York"
  Country: "United States"
  Latitude: "40.6914"
  Longitude: "-73.8061"
- ID: "257"
  Line1: "5 Golf Course Pass"
  Line2: 
  City: "Gary"
  PostalCode: "46406"
  StateProvince: "Indiana"
  Country: "United States"
  Latitude: "41.5878"
  Longitude: "-87.4062"
- ID: "258"
  Line1: "54068 Carey Road"
  Line2: 
  City: "London"
  PostalCode: "40745"
  StateProvince: "Kentucky"
  Country: "United States"
  Latitude: "37.1376"
  Longitude: "-84.1156"
- ID: "259"
  Line1: "6 Lyons Place"
  Line2: 
  City: "Atlanta"
  PostalCode: "31106"
  StateProvince: "Georgia"
  Country: "United States"
  Latitude: "33.8444"
  Longitude: "-84.474"
- ID: "260"
  Line1: "7 Sullivan Alley"
  Line2: "Apt 4"
  City: "Miami"
  PostalCode: "33175"
  StateProvince: "Florida"
  Country: "United States"
  Latitude: "25.7341"
  Longitude: "-80.4068"
- ID: "261"
  Line1: "12 Westridge Drive"
  Line2: 
  City: "Duluth"
  PostalCode: "30096"
  StateProvince: "Georgia"
  Country: "United States"
  Latitude: "33.9845"
  Longitude: "-84.1529"
- ID: "262"
  Line1: "80 Lindbergh Center"
  Line2: 
  City: "San Antonio"
  PostalCode: "78255"
  StateProvince: "Texas"
  Country: "United States"
  Latitude: "29.6701"
  Longitude: "-98.6873"
- ID: "263"
  Line1: "42426 Lakewood Hill"
  Line2: 
  City: "Saint Louis"
  PostalCode: "63104"
  StateProvince: "Missouri"
  Country: "United States"
  Latitude: "38.6128"
  Longitude: "-90.2185"
- ID: "264"
  Line1: "0899 Raven Lane"
  Line2: 
  City: "Rochester"
  PostalCode: "14619"
  StateProvince: "New York"
  Country: "United States"
  Latitude: "43.1367"
  Longitude: "-77.6481"
- ID: "265"
  Line1: "3 Tennessee Hill"
  Line2: 
  City: "San Francisco"
  PostalCode: "94159"
  StateProvince: "California"
  Country: "United States"
  Latitude: "37.7848"
  Longitude: "-122.7278"
- ID: "266"
  Line1: "80 Susan Parkway"
  Line2: 
  City: "Houston"
  PostalCode: "77240"
  StateProvince: "Texas"
  Country: "United States"
  Latitude: "29.834"
  Longitude: "-95.4342"
- ID: "267"
  Line1: "486 Moulton Way"
  Line2: "Suite 454"
  City: "Norfolk"
  PostalCode: "23520"
  StateProvince: "Virginia"
  Country: "United States"
  Latitude: "36.9312"
  Longitude: "-76.2397"
- ID: "268"
  Line1: "4434 Manley Terrace"
  Line2: 
  City: "Canton"
  PostalCode: "44720"
  StateProvince: "Ohio"
  Country: "United States"
  Latitude: "40.8956"
  Longitude: "-81.433"
- ID: "269"
  Line1: "109 Straubel Hill"
  Line2: 
  City: "Washington"
  PostalCode: "20503"
  StateProvince: "District of Columbia"
  Country: "United States"
  Latitude: "38.9007"
  Longitude: "-77.0431"
- ID: "270"
  Line1: "78 Bellgrove Place"
  Line2: 
  City: "Pasadena"
  PostalCode: "91103"
  StateProvince: "California"
  Country: "United States"
  Latitude: "34.1669"
  Longitude: "-118.1551"
- ID: "271"
  Line1: "6 Truax Street"
  Line2: 
  City: "Shreveport"
  PostalCode: "71161"
  StateProvince: "Louisiana"
  Country: "United States"
  Latitude: "32.6076"
  Longitude: "-93.7526"
- ID: "272"
  Line1: "298 Macpherson Center"
  Line2: 
  City: "Whittier"
  PostalCode: "90605"
  StateProvince: "California"
  Country: "United States"
  Latitude: "33.9413"
  Longitude: "-118.0356"
- ID: "273"
  Line1: "1341 Kim Crossing"
  Line2: 
  City: "Birmingham"
  PostalCode: "35231"
  StateProvince: "Alabama"
  Country: "United States"
  Latitude: "33.5446"
  Longitude: "-86.9292"
- ID: "274"
  Line1: "1 Nova Plaza"
  Line2: 
  City: "North Las Vegas"
  PostalCode: "89087"
  StateProvince: "Nevada"
  Country: "United States"
  Latitude: "36.2204"
  Longitude: "-115.1458"
- ID: "275"
  Line1: "45 Loftsgordon Way"
  Line2: 
  City: "Washington"
  PostalCode: "20430"
  StateProvince: "District of Columbia"
  Country: "United States"
  Latitude: "38.9164"
  Longitude: "-76.9948"
- ID: "276"
  Line1: "57182 Shelley Lane"
  Line2: 
  City: "Florence"
  PostalCode: "29505"
  StateProvince: "South Carolina"
  Country: "United States"
  Latitude: "34.1231"
  Longitude: "-79.6893"
- ID: "277"
  Line1: "26749 Loeprich Junction"
  Line2: 
  City: "Greenville"
  PostalCode: "29610"
  StateProvince: "South Carolina"
  Country: "United States"
  Latitude: "34.8497"
  Longitude: "-82.4538"
- ID: "278"
  Line1: "24978 Stone Corner Trail"
  Line2: 
  City: "Richmond"
  PostalCode: "94807"
  StateProvince: "California"
  Country: "United States"
  Latitude: "37.7772"
  Longitude: "-121.9554"
- ID: "279"
  Line1: "01443 Mendota Trail"
  Line2: 
  City: "Greenville"
  PostalCode: "29615"
  StateProvince: "South Carolina"
  Country: "United States"
  Latitude: "34.8661"
  Longitude: "-82.3198"
- ID: "280"
  Line1: "3609 Bunker Hill Junction"
  Line2: 
  City: "Minneapolis"
  PostalCode: "55428"
  StateProvince: "Minnesota"
  Country: "United States"
  Latitude: "45.0632"
  Longitude: "-93.3811"
- ID: "281"
  Line1: "83104 Valley Edge Point"
  Line2: 
  City: "Punta Gorda"
  PostalCode: "33982"
  StateProvince: "Florida"
  Country: "United States"
  Latitude: "26.9668"
  Longitude: "-81.9545"
- ID: "282"
  Line1: "2280 North Avenue"
  Line2: 
  City: "Sarasota"
  PostalCode: "34238"
  StateProvince: "Florida"
  Country: "United States"
  Latitude: "27.2427"
  Longitude: "-82.4751"
- ID: "283"
  Line1: "368 Stoughton Road"
  Line2: 
  City: "Sarasota"
  PostalCode: "34233"
  StateProvince: "Florida"
  Country: "United States"
  Latitude: "27.2866"
  Longitude: "-82.477"
- ID: "284"
  Line1: "63 Jana Crossing"
  Line2: 
  City: "Tucson"
  PostalCode: "85705"
  StateProvince: "Arizona"
  Country: "United States"
  Latitude: "32.2691"
  Longitude: "-110.9845"
- ID: "285"
  Line1: "188 Golden Leaf Pass"
  Line2: 
  City: "Salt Lake City"
  PostalCode: "84189"
  StateProvince: "Utah"
  Country: "United States"
  Latitude: "40.6681"
  Longitude: "-111.9083"
- ID: "286"
  Line1: "19 Pawling Place"
  Line2: 
  City: "Oklahoma City"
  PostalCode: "73129"
  StateProvince: "Oklahoma"
  Country: "United States"
  Latitude: "35.4312"
  Longitude: "-97.4913"
- ID: "287"
  Line1: "124 Twin Pines Point"
  Line2: 
  City: "Aurora"
  PostalCode: "60505"
  StateProvince: "Illinois"
  Country: "United States"
  Latitude: "41.7582"
  Longitude: "-88.2971"
- ID: "288"
  Line1: "69 Westend Junction"
  Line2: 
  City: "Washington"
  PostalCode: "20546"
  StateProvince: "District of Columbia"
  Country: "United States"
  Latitude: "38.891"
  Longitude: "-77.0211"
- ID: "289"
  Line1: "95555 Ludington Circle"
  Line2: 
  City: "Stockton"
  PostalCode: "95219"
  StateProvince: "California"
  Country: "United States"
  Latitude: "38.01"
  Longitude: "-121.3698"
- ID: "290"
  Line1: "1830 Duke Street"
  Line2: 
  City: "Beaufort"
  PostalCode: "29905"
  StateProvince: "South Carolina"
  Country: "United States"
  Latitude: "32.3401"
  Longitude: "-80.689"
- ID: "291"
  Line1: "9 Hallows Drive"
  Line2: 
  City: "Bronx"
  PostalCode: "10474"
  StateProvince: "New York"
  Country: "United States"
  Latitude: "40.8139"
  Longitude: "-73.8841"
- ID: "292"
  Line1: "508 Mendota Hill"
  Line2: 
  City: "Huntsville"
  PostalCode: "35810"
  StateProvince: "Alabama"
  Country: "United States"
  Latitude: "34.7784"
  Longitude: "-86.6091"
- ID: "293"
  Line1: "38 Brown Circle"
  Line2: "Apt. 5"
  City: "Corpus Christi"
  PostalCode: "78426"
  StateProvince: "Texas"
  Country: "United States"
  Latitude: "27.777"
  Longitude: "-97.4632"
- ID: "294"
  Line1: "98 Farmco Lane"
  Line2: 
  City: "Evansville"
  PostalCode: "47747"
  StateProvince: "Indiana"
  Country: "United States"
  Latitude: "37.9971"
  Longitude: "-87.575"
- ID: "295"
  Line1: "7922 Prairie Rose Crossing"
  Line2: 
  City: "Orange"
  PostalCode: "92862"
  StateProvince: "California"
  Country: "United States"
  Latitude: "33.7915"
  Longitude: "-117.714"
- ID: "296"
  Line1: "2 Magdeline Drive"
  Line2: 
  City: "Salt Lake City"
  PostalCode: "84105"
  StateProvince: "Utah"
  Country: "United States"
  Latitude: "40.7372"
  Longitude: "-111.8581"
- ID: "297"
  Line1: "2604 Ryan Parkway"
  Line2: 
  City: "Sacramento"
  PostalCode: "94273"
  StateProvince: "California"
  Country: "United States"
  Latitude: "38.3774"
  Longitude: "-121.4444"
- ID: "298"
  Line1: "4 Butternut Center"
  Line2: 
  City: "Omaha"
  PostalCode: "68117"
  StateProvince: "Nebraska"
  Country: "United States"
  Latitude: "41.2064"
  Longitude: "-95.9953"
- ID: "299"
  Line1: "2040 Hoepker Parkway"
  Line2: 
  City: "Southfield"
  PostalCode: "48076"
  StateProvince: "Michigan"
  Country: "United States"
  Latitude: "42.4981"
  Longitude: "-83.2058"
- ID: "300"
  Line1: "252 Continental Pass"
  Line2: 
  City: "Miami"
  PostalCode: "33175"
  StateProvince: "Florida"
  Country: "United States"
  Latitude: "25.7341"
  Longitude: "-80.4068"
- ID: "301"
  Line1: "2 Dorton Drive"
  Line2: 
  City: "Ventura"
  PostalCode: "93005"
  StateProvince: "California"
  Country: "United States"
  Latitude: "34.0324"
  Longitude: "-119.1343"
- ID: "302"
  Line1: "06 Rowland Crossing"
  Line2: 
  City: "Marietta"
  PostalCode: "30066"
  StateProvince: "Georgia"
  Country: "United States"
  Latitude: "34.0378"
  Longitude: "-84.5038"
- ID: "303"
  Line1: "41 Spaight Lane"
  Line2: 
  City: "Saint Petersburg"
  PostalCode: "33742"
  StateProvince: "Florida"
  Country: "United States"
  Latitude: "27.8918"
  Longitude: "-82.7248"
- ID: "304"
  Line1: "5099 Carpenter Drive"
  Line2: 
  City: "Long Beach"
  PostalCode: "90831"
  StateProvince: "California"
  Country: "United States"
  Latitude: "33.7678"
  Longitude: "-118.1994"
- ID: "305"
  Line1: "0432 Tennyson Alley"
  Line2: 
  City: "Atlanta"
  PostalCode: "30306"
  StateProvince: "Georgia"
  Country: "United States"
  Latitude: "33.786"
  Longitude: "-84.3514"
- ID: "306"
  Line1: "7 Ryan Plaza"
  Line2: 
  City: "El Paso"
  PostalCode: "79928"
  StateProvince: "Texas"
  Country: "United States"
  Latitude: "31.6631"
  Longitude: "-106.1401"
- ID: "307"
  Line1: "169 Forest Road"
  Line2: 
  City: "San Jose"
  PostalCode: "95155"
  StateProvince: "California"
  Country: "United States"
  Latitude: "37.31"
  Longitude: "-121.9011"
- ID: "308"
  Line1: "0015 Pearson Point"
  Line2: 
  City: "Wichita"
  PostalCode: "67230"
  StateProvince: "Kansas"
  Country: "United States"
  Latitude: "37.6808"
  Longitude: "-97.1558"
- ID: "309"
  Line1: "34 Utah Court"
  Line2: 
  City: "Nashville"
  PostalCode: "37215"
  StateProvince: "Tennessee"
  Country: "United States"
  Latitude: "36.0986"
  Longitude: "-86.8219"
- ID: "310"
  Line1: "94 Golf Course Hill"
  Line2: 
  City: "Reno"
  PostalCode: "89550"
  StateProvince: "Nevada"
  Country: "United States"
  Latitude: "39.5387"
  Longitude: "-119.8225"
- ID: "311"
  Line1: "7 Spaight Alley"
  Line2: 
  City: "Irvine"
  PostalCode: "92717"
  StateProvince: "California"
  Country: "United States"
  Latitude: "33.6462"
  Longitude: "-117.8398"
- ID: "312"
  Line1: "38364 Myrtle Drive"
  Line2: 
  City: "Denver"
  PostalCode: "80279"
  StateProvince: "Colorado"
  Country: "United States"
  Latitude: "39.7388"
  Longitude: "-104.4083"
- ID: "313"
  Line1: "64958 Logan Hill"
  Line2: 
  City: "Cleveland"
  PostalCode: "44105"
  StateProvince: "Ohio"
  Country: "United States"
  Latitude: "41.4509"
  Longitude: "-81.619"
- ID: "314"
  Line1: "9025 Westend Crossing"
  Line2: 
  City: "Sacramento"
  PostalCode: "94257"
  StateProvince: "California"
  Country: "United States"
  Latitude: "38.3774"
  Longitude: "-121.4444"
- ID: "315"
  Line1: "7 Golf Road"
  Line2: 
  City: "San Diego"
  PostalCode: "92110"
  StateProvince: "California"
  Country: "United States"
  Latitude: "32.7635"
  Longitude: "-117.2028"
- ID: "316"
  Line1: "21497 Buhler Parkway"
  Line2: "#4234"
  City: "Homestead"
  PostalCode: "33034"
  StateProvince: "Florida"
  Country: "United States"
  Latitude: "25.2846"
  Longitude: "-80.6246"
- ID: "317"
  Line1: "485 Bunting Terrace"
  Line2: 
  City: "Portland"
  PostalCode: "97296"
  StateProvince: "Oregon"
  Country: "United States"
  Latitude: "45.5806"
  Longitude: "-122.3748"
- ID: "318"
  Line1: "216 Crowley Parkway"
  Line2: 
  City: "Fort Lauderdale"
  PostalCode: "33330"
  StateProvince: "Florida"
  Country: "United States"
  Latitude: "26.0663"
  Longitude: "-80.3339"
- ID: "319"
  Line1: "4 Dottie Place"
  Line2: 
  City: "Tulsa"
  PostalCode: "74108"
  StateProvince: "Oklahoma"
  Country: "United States"
  Latitude: "36.1499"
  Longitude: "-95.7923"
- ID: "320"
  Line1: "1 Harbort Alley"
  Line2: 
  City: "Irvine"
  PostalCode: "92612"
  StateProvince: "California"
  Country: "United States"
  Latitude: "33.6607"
  Longitude: "-117.8264"
- ID: "321"
  Line1: "8 Southridge Place"
  Line2: 
  City: "Columbia"
  PostalCode: "29240"
  StateProvince: "South Carolina"
  Country: "United States"
  Latitude: "34.006"
  Longitude: "-80.9708"
- ID: "322"
  Line1: "060 Mayer Point"
  Line2: 
  City: "Fresno"
  PostalCode: "93773"
  StateProvince: "California"
  Country: "United States"
  Latitude: "36.7464"
  Longitude: "-119.6397"
- ID: "323"
  Line1: "9 Memorial Parkway"
  Line2: 
  City: "Denver"
  PostalCode: "80217"
  StateProvince: "Colorado"
  Country: "United States"
  Latitude: "39.7388"
  Longitude: "-104.4083"
- ID: "324"
  Line1: "12904 6th Plaza"
  Line2: 
  City: "Yakima"
  PostalCode: "98907"
  StateProvince: "Washington"
  Country: "United States"
  Latitude: "46.6288"
  Longitude: "-120.574"
- ID: "325"
  Line1: "9 Clyde Gallagher Trail"
  Line2: 
  City: "Kansas City"
  PostalCode: "64179"
  StateProvince: "Missouri"
  Country: "United States"
  Latitude: "39.035"
  Longitude: "-94.3567"
- ID: "326"
  Line1: "93 Kings Hill"
  Line2: 
  City: "Denver"
  PostalCode: "80223"
  StateProvince: "Colorado"
  Country: "United States"
  Latitude: "39.7002"
  Longitude: "-105.0028"
- ID: "327"
  Line1: "2 Larry Crossing"
  Line2: 
  City: "Norfolk"
  PostalCode: "23504"
  StateProvince: "Virginia"
  Country: "United States"
  Latitude: "36.8586"
  Longitude: "-76.2686"
- ID: "328"
  Line1: "28958 Bartelt Avenue"
  Line2: 
  City: "Pensacola"
  PostalCode: "32526"
  StateProvince: "Florida"
  Country: "United States"
  Latitude: "30.4756"
  Longitude: "-87.3179"
- ID: "329"
  Line1: "10 Corscot Hill"
  Line2: 
  City: "Wichita"
  PostalCode: "67260"
  StateProvince: "Kansas"
  Country: "United States"
  Latitude: "37.7194"
  Longitude: "-97.2936"
- ID: "330"
  Line1: "19904 Doe Crossing Park"
  Line2: 
  City: "Jacksonville"
  PostalCode: "32244"
  StateProvince: "Florida"
  Country: "United States"
  Latitude: "30.2231"
  Longitude: "-81.7556"
- ID: "331"
  Line1: "9653 Tony Place"
  Line2: 
  City: "Saint Paul"
  PostalCode: "55166"
  StateProvince: "Minnesota"
  Country: "United States"
  Latitude: "45.0059"
  Longitude: "-93.1059"
- ID: "332"
  Line1: "878 Carpenter Alley"
  Line2: 
  City: "Warren"
  PostalCode: "44485"
  StateProvince: "Ohio"
  Country: "United States"
  Latitude: "41.2405"
  Longitude: "-80.8441"
- ID: "333"
  Line1: "645 Main Court"
  Line2: 
  City: "Shreveport"
  PostalCode: "71161"
  StateProvince: "Louisiana"
  Country: "United States"
  Latitude: "32.6076"
  Longitude: "-93.7526"
- ID: "334"
  Line1: "2 Meadow Ridge Parkway"
  Line2: 
  City: "Spring Hill"
  PostalCode: "34611"
  StateProvince: "Florida"
  Country: "United States"
  Latitude: "28.5642"
  Longitude: "-82.4165"
- ID: "335"
  Line1: "9243 Golf Trail"
  Line2: 
  City: "Bronx"
  PostalCode: "10459"
  StateProvince: "New York"
  Country: "United States"
  Latitude: "40.8247"
  Longitude: "-73.894"
- ID: "336"
  Line1: "285 Sullivan Way"
  Line2: 
  City: "El Paso"
  PostalCode: "79955"
  StateProvince: "Texas"
  Country: "United States"
  Latitude: "31.6948"
  Longitude: "-106.3"
- ID: "337"
  Line1: "227 Holmberg Pass"
  Line2: 
  City: "Louisville"
  PostalCode: "40293"
  StateProvince: "Kentucky"
  Country: "United States"
  Latitude: "38.189"
  Longitude: "-85.6768"
- ID: "338"
  Line1: "033 Golf Avenue"
  Line2: 
  City: "Des Moines"
  PostalCode: "50347"
  StateProvince: "Iowa"
  Country: "United States"
  Latitude: "41.6727"
  Longitude: "-93.5722"
- ID: "339"
  Line1: "11 Meadow Ridge Road"
  Line2: "#344"
  City: "Tacoma"
  PostalCode: "98405"
  StateProvince: "Washington"
  Country: "United States"
  Latitude: "47.2484"
  Longitude: "-122.4644"
- ID: "340"
  Line1: "1 Clove Street"
  Line2: 
  City: "Olympia"
  PostalCode: "98506"
  StateProvince: "Washington"
  Country: "United States"
  Latitude: "47.1042"
  Longitude: "-122.87"
- ID: "341"
  Line1: "63906 Riverside Pass"
  Line2: 
  City: "Washington"
  PostalCode: "20062"
  StateProvince: "District of Columbia"
  Country: "United States"
  Latitude: "38.9"
  Longitude: "-77.0369"
- ID: "342"
  Line1: "875 Prairieview Junction"
  Line2: 
  City: "Boca Raton"
  PostalCode: "33487"
  StateProvince: "Florida"
  Country: "United States"
  Latitude: "26.4116"
  Longitude: "-80.0928"
- ID: "343"
  Line1: "4075 Bluestem Way"
  Line2: 
  City: "Houston"
  PostalCode: "77276"
  StateProvince: "Texas"
  Country: "United States"
  Latitude: "29.7575"
  Longitude: "-95.3668"
- ID: "344"
  Line1: "5521 Karstens Crossing"
  Line2: 
  City: "Seattle"
  PostalCode: "98115"
  StateProvince: "Washington"
  Country: "United States"
  Latitude: "47.6849"
  Longitude: "-122.2968"
- ID: "345"
  Line1: "7951 Ridge Oak Road"
  Line2: 
  City: "Lancaster"
  PostalCode: "17622"
  StateProvince: "Pennsylvania"
  Country: "United States"
  Latitude: "40.0418"
  Longitude: "-76.3012"
- ID: "346"
  Line1: "34208 Myrtle Point"
  Line2: 
  City: "Madison"
  PostalCode: "53705"
  StateProvince: "Wisconsin"
  Country: "United States"
  Latitude: "43.073"
  Longitude: "-89.4528"
- ID: "347"
  Line1: "856 Fuller Circle"
  Line2: 
  City: "Cleveland"
  PostalCode: "44125"
  StateProvince: "Ohio"
  Country: "United States"
  Latitude: "41.4335"
  Longitude: "-81.6323"
- ID: "348"
  Line1: "4315 Longview Place"
  Line2: 
  City: "Beaumont"
  PostalCode: "77713"
  StateProvince: "Texas"
  Country: "United States"
  Latitude: "30.085"
  Longitude: "-94.2607"
- ID: "349"
  Line1: "44487 Westport Plaza"
  Line2: 
  City: "Grand Rapids"
  PostalCode: "49518"
  StateProvince: "Michigan"
  Country: "United States"
  Latitude: "43.0314"
  Longitude: "-85.5503"
- ID: "350"
  Line1: "95 Grim Crossing"
  Line2: 
  City: "Chattanooga"
  PostalCode: "37405"
  StateProvince: "Tennessee"
  Country: "United States"
  Latitude: "35.0768"
  Longitude: "-85.3082"
- ID: "351"
  Line1: "71802 Old Gate Parkway"
  Line2: 
  City: "Denver"
  PostalCode: "80235"
  StateProvince: "Colorado"
  Country: "United States"
  Latitude: "39.6472"
  Longitude: "-105.0795"
- ID: "352"
  Line1: "47847 Dahle Point"
  Line2: 
  City: "Amarillo"
  PostalCode: "79159"
  StateProvince: "Texas"
  Country: "United States"
  Latitude: "35.216"
  Longitude: "-102.0714"
- ID: "353"
  Line1: "05 Mifflin Trail"
  Line2: 
  City: "Kissimmee"
  PostalCode: "34745"
  StateProvince: "Florida"
  Country: "United States"
  Latitude: "27.9953"
  Longitude: "-81.2593"
- ID: "354"
  Line1: "1 Grim Junction"
  Line2: 
  City: "Houston"
  PostalCode: "77020"
  StateProvince: "Texas"
  Country: "United States"
  Latitude: "29.7758"
  Longitude: "-95.3121"
- ID: "355"
  Line1: "3 North Park"
  Line2: 
  City: "New Haven"
  PostalCode: "6505"
  StateProvince: "Connecticut"
  Country: "United States"
  Latitude: "41.3057"
  Longitude: "-72.7799"
- ID: "356"
  Line1: "85352 Quincy Alley"
  Line2: 
  City: "Seattle"
  PostalCode: "98121"
  StateProvince: "Washington"
  Country: "United States"
  Latitude: "47.6151"
  Longitude: "-122.3447"
- ID: "357"
  Line1: "74 Thackeray Center"
  Line2: 
  City: "Lincoln"
  PostalCode: "68517"
  StateProvince: "Nebraska"
  Country: "United States"
  Latitude: "40.9317"
  Longitude: "-96.6045"
- ID: "358"
  Line1: "0 Dixon Junction"
  Line2: 
  City: "Topeka"
  PostalCode: "66617"
  StateProvince: "Kansas"
  Country: "United States"
  Latitude: "39.1271"
  Longitude: "-95.6384"
- ID: "359"
  Line1: "120 Graceland Place"
  Line2: 
  City: "Omaha"
  PostalCode: "68144"
  StateProvince: "Nebraska"
  Country: "United States"
  Latitude: "41.2335"
  Longitude: "-96.1188"
- ID: "360"
  Line1: "449 Northridge Alley"
  Line2: 
  City: "Des Moines"
  PostalCode: "50335"
  StateProvince: "Iowa"
  Country: "United States"
  Latitude: "41.6727"
  Longitude: "-93.5722"
- ID: "361"
  Line1: "02 Ohio Drive"
  Line2: 
  City: "Columbus"
  PostalCode: "31914"
  StateProvince: "Georgia"
  Country: "United States"
  Latitude: "32.491"
  Longitude: "-84.8741"
- ID: "362"
  Line1: "49456 Delaware Lane"
  Line2: 
  City: "Dallas"
  PostalCode: "75251"
  StateProvince: "Texas"
  Country: "United States"
  Latitude: "32.9189"
  Longitude: "-96.7751"
- ID: "363"
  Line1: "59 Glendale Pass"
  Line2: "#7885"
  City: "San Antonio"
  PostalCode: "78220"
  StateProvince: "Texas"
  Country: "United States"
  Latitude: "29.4106"
  Longitude: "-98.4128"
- ID: "364"
  Line1: "6404 Sutherland Lane"
  Line2: 
  City: "New Orleans"
  PostalCode: "70116"
  StateProvince: "Louisiana"
  Country: "United States"
  Latitude: "29.9686"
  Longitude: "-90.0646"
- ID: "365"
  Line1: "69645 Golden Leaf Avenue"
  Line2: 
  City: "Saint Louis"
  PostalCode: "63158"
  StateProvince: "Missouri"
  Country: "United States"
  Latitude: "38.6531"
  Longitude: "-90.2435"
- ID: "366"
  Line1: "70 Brown Lane"
  Line2: 
  City: "Oklahoma City"
  PostalCode: "73119"
  StateProvince: "Oklahoma"
  Country: "United States"
  Latitude: "35.421"
  Longitude: "-97.5616"
- ID: "367"
  Line1: "4 Amoth Avenue"
  Line2: 
  City: "Arlington"
  PostalCode: "76004"
  StateProvince: "Texas"
  Country: "United States"
  Latitude: "32.7714"
  Longitude: "-97.2915"
- ID: "368"
  Line1: "28247 Victoria Court"
  Line2: 
  City: "Roanoke"
  PostalCode: "24048"
  StateProvince: "Virginia"
  Country: "United States"
  Latitude: "37.2742"
  Longitude: "-79.9579"
- ID: "369"
  Line1: "70 Meadow Vale Way"
  Line2: 
  City: "Wichita"
  PostalCode: "67215"
  StateProvince: "Kansas"
  Country: "United States"
  Latitude: "37.6333"
  Longitude: "-97.425"
- ID: "370"
  Line1: "75324 Hollow Ridge Place"
  Line2: 
  City: "Young America"
  PostalCode: "55551"
  StateProvince: "Minnesota"
  Country: "United States"
  Latitude: "44.8055"
  Longitude: "-93.7665"
- ID: "371"
  Line1: "592 Golf Course Trail"
  Line2: 
  City: "Tucson"
  PostalCode: "85743"
  StateProvince: "Arizona"
  Country: "United States"
  Latitude: "32.3366"
  Longitude: "-111.1771"
- ID: "372"
  Line1: "9 Southridge Way"
  Line2: 
  City: "Monticello"
  PostalCode: "55590"
  StateProvince: "Minnesota"
  Country: "United States"
  Latitude: "45.2009"
  Longitude: "-93.8881"
- ID: "373"
  Line1: "527 Crest Line Road"
  Line2: 
  City: "Minneapolis"
  PostalCode: "55441"
  StateProvince: "Minnesota"
  Country: "United States"
  Latitude: "45.0058"
  Longitude: "-93.4193"
- ID: "374"
  Line1: "8 Barby Lane"
  Line2: 
  City: "Fort Wayne"
  PostalCode: "46862"
  StateProvince: "Indiana"
  Country: "United States"
  Latitude: "41.0938"
  Longitude: "-85.0707"
- ID: "375"
  Line1: "30783 Express Park"
  Line2: 
  City: "Des Moines"
  PostalCode: "50320"
  StateProvince: "Iowa"
  Country: "United States"
  Latitude: "41.5487"
  Longitude: "-93.5827"
- ID: "376"
  Line1: "3240 Loomis Way"
  Line2: 
  City: "San Antonio"
  PostalCode: "78240"
  StateProvince: "Texas"
  Country: "United States"
  Latitude: "29.5189"
  Longitude: "-98.6006"
- ID: "377"
  Line1: "3291 Shoshone Junction"
  Line2: 
  City: "Louisville"
  PostalCode: "40298"
  StateProvince: "Kentucky"
  Country: "United States"
  Latitude: "38.189"
  Longitude: "-85.6768"
- ID: "378"
  Line1: "734 Dapin Place"
  Line2: 
  City: "Corona"
  PostalCode: "92878"
  StateProvince: "California"
  Country: "United States"
  Latitude: "33.7529"
  Longitude: "-116.0556"
- ID: "379"
  Line1: "03 Forest Dale Pass"
  Line2: 
  City: "Baltimore"
  PostalCode: "21282"
  StateProvince: "Maryland"
  Country: "United States"
  Latitude: "39.439"
  Longitude: "-76.5921"
- ID: "380"
  Line1: "558 Main Way"
  Line2: 
  City: "Boston"
  PostalCode: "2104"
  StateProvince: "Massachusetts"
  Country: "United States"
  Latitude: "42.3389"
  Longitude: "-70.9196"
- ID: "381"
  Line1: "9807 Jenna Terrace"
  Line2: 
  City: "New York City"
  PostalCode: "10110"
  StateProvince: "New York"
  Country: "United States"
  Latitude: "40.754"
  Longitude: "-73.9808"
- ID: "382"
  Line1: "4 American Place"
  Line2: 
  City: "Miami"
  PostalCode: "33124"
  StateProvince: "Florida"
  Country: "United States"
  Latitude: "25.5584"
  Longitude: "-80.4582"
- ID: "383"
  Line1: "34 Briar Crest Drive"
  Line2: 
  City: "Sioux City"
  PostalCode: "51105"
  StateProvince: "Iowa"
  Country: "United States"
  Latitude: "42.5032"
  Longitude: "-96.3829"
- ID: "384"
  Line1: "738 Debs Center"
  Line2: "#545"
  City: "Orlando"
  PostalCode: "32808"
  StateProvince: "Florida"
  Country: "United States"
  Latitude: "28.5803"
  Longitude: "-81.4396"
- ID: "385"
  Line1: "65797 Cottonwood Place"
  Line2: 
  City: "Rochester"
  PostalCode: "14683"
  StateProvince: "New York"
  Country: "United States"
  Latitude: "43.286"
  Longitude: "-77.6843"
- ID: "386"
  Line1: "87686 New Castle Way"
  Line2: 
  City: "San Antonio"
  PostalCode: "78215"
  StateProvince: "Texas"
  Country: "United States"
  Latitude: "29.4413"
  Longitude: "-98.4793"
- ID: "387"
  Line1: "9088 Kropf Way"
  Line2: 
  City: "Littleton"
  PostalCode: "80127"
  StateProvince: "Colorado"
  Country: "United States"
  Latitude: "39.592"
  Longitude: "-105.1328"
- ID: "388"
  Line1: "6 Duke Lane"
  Line2: 
  City: "Savannah"
  PostalCode: "31416"
  StateProvince: "Georgia"
  Country: "United States"
  Latitude: "32.0053"
  Longitude: "-81.0477"
- ID: "389"
  Line1: "869 Glacier Hill Avenue"
  Line2: 
  City: "New York City"
  PostalCode: "10292"
  StateProvince: "New York"
  Country: "United States"
  Latitude: "40.7808"
  Longitude: "-73.9772"
- ID: "390"
  Line1: "73640 Cody Trail"
  Line2: 
  City: "Berkeley"
  PostalCode: "94705"
  StateProvince: "California"
  Country: "United States"
  Latitude: "37.8571"
  Longitude: "-122.25"
- ID: "391"
  Line1: "3766 Burrows Alley"
  Line2: 
  City: "New York City"
  PostalCode: "10120"
  StateProvince: "New York"
  Country: "United States"
  Latitude: "40.7506"
  Longitude: "-73.9894"
- ID: "392"
  Line1: "4678 Fisk Court"
  Line2: 
  City: "San Francisco"
  PostalCode: "94132"
  StateProvince: "California"
  Country: "United States"
  Latitude: "37.7211"
  Longitude: "-122.4754"
- ID: "393"
  Line1: "19 Cascade Circle"
  Line2: 
  City: "Fort Lauderdale"
  PostalCode: "33305"
  StateProvince: "Florida"
  Country: "United States"
  Latitude: "26.1497"
  Longitude: "-80.1229"
- ID: "394"
  Line1: "5 Fallview Trail"
  Line2: 
  City: "Irvine"
  PostalCode: "92717"
  StateProvince: "California"
  Country: "United States"
  Latitude: "33.6462"
  Longitude: "-117.8398"
- ID: "395"
  Line1: "755 Crescent Oaks Alley"
  Line2: 
  City: "Houston"
  PostalCode: "77030"
  StateProvince: "Texas"
  Country: "United States"
  Latitude: "29.7041"
  Longitude: "-95.401"
- ID: "396"
  Line1: "28 Luster Road"
  Line2: 
  City: "Biloxi"
  PostalCode: "39534"
  StateProvince: "Mississippi"
  Country: "United States"
  Latitude: "30.4067"
  Longitude: "-88.9211"
- ID: "397"
  Line1: "72387 Vernon Junction"
  Line2: 
  City: "San Francisco"
  PostalCode: "94164"
  StateProvince: "California"
  Country: "United States"
  Latitude: "37.7848"
  Longitude: "-122.7278"
- ID: "398"
  Line1: "0912 Merrick Plaza"
  Line2: 
  City: "Washington"
  PostalCode: "20260"
  StateProvince: "District of Columbia"
  Country: "United States"
  Latitude: "38.8933"
  Longitude: "-77.0146"
- ID: "399"
  Line1: "602 Hermina Parkway"
  Line2: 
  City: "Minneapolis"
  PostalCode: "55436"
  StateProvince: "Minnesota"
  Country: "United States"
  Latitude: "44.9034"
  Longitude: "-93.374"
- ID: "400"
  Line1: "418 Lawn Avenue"
  Line2: 
  City: "Largo"
  PostalCode: "33777"
  StateProvince: "Florida"
  Country: "United States"
  Latitude: "27.8546"
  Longitude: "-82.7545"
- ID: "401"
  Line1: "32856 Prairie Rose Park"
  Line2: 
  City: "Alexandria"
  PostalCode: "22313"
  StateProvince: "Virginia"
  Country: "United States"
  Latitude: "38.8158"
  Longitude: "-77.09"
- ID: "402"
  Line1: "5432 Florence Hill"
  Line2: 
  City: "Ventura"
  PostalCode: "93005"
  StateProvince: "California"
  Country: "United States"
  Latitude: "34.0324"
  Longitude: "-119.1343"
- ID: "403"
  Line1: "5 Nevada Trail"
  Line2: 
  City: "Pompano Beach"
  PostalCode: "33069"
  StateProvince: "Florida"
  Country: "United States"
  Latitude: "26.2288"
  Longitude: "-80.1635"
- ID: "404"
  Line1: "4726 Mifflin Pass"
  Line2: 
  City: "Spring"
  PostalCode: "77388"
  StateProvince: "Texas"
  Country: "United States"
  Latitude: "30.0505"
  Longitude: "-95.4695"
- ID: "405"
  Line1: "71646 Troy Pass"
  Line2: 
  City: "New York City"
  PostalCode: "10249"
  StateProvince: "New York"
  Country: "United States"
  Latitude: "40.7808"
  Longitude: "-73.9772"
- ID: "406"
  Line1: "5 Esch Junction"
  Line2: 
  City: "Kansas City"
  PostalCode: "64153"
  StateProvince: "Missouri"
  Country: "United States"
  Latitude: "39.2627"
  Longitude: "-94.697"
- ID: "407"
  Line1: "59 Summer Ridge Park"
  Line2: 
  City: "Clearwater"
  PostalCode: "34620"
  StateProvince: "Florida"
  Country: "United States"
  Latitude: "27.9139"
  Longitude: "-82.7157"
- ID: "408"
  Line1: "13568 Fallview Alley"
  Line2: 
  City: "New York City"
  PostalCode: "10045"
  StateProvince: "New York"
  Country: "United States"
  Latitude: "40.7086"
  Longitude: "-74.0087"
- ID: "409"
  Line1: "9 Troy Trail"
  Line2: "#775"
  City: "Savannah"
  PostalCode: "31416"
  StateProvince: "Georgia"
  Country: "United States"
  Latitude: "32.0053"
  Longitude: "-81.0477"
- ID: "410"
  Line1: "3 Forest Center"
  Line2: 
  City: "Dayton"
  PostalCode: "45432"
  StateProvince: "Ohio"
  Country: "United States"
  Latitude: "39.739"
  Longitude: "-84.0856"
- ID: "411"
  Line1: "3275 Montana Plaza"
  Line2: 
  City: "Durham"
  PostalCode: "27717"
  StateProvince: "North Carolina"
  Country: "United States"
  Latitude: "36.0512"
  Longitude: "-78.8577"
- ID: "412"
  Line1: "12798 Dottie Park"
  Line2: 
  City: "Little Rock"
  PostalCode: "72222"
  StateProvince: "Arkansas"
  Country: "United States"
  Latitude: "34.7519"
  Longitude: "-92.3925"
- ID: "413"
  Line1: "70 Paget Street"
  Line2: 
  City: "San Jose"
  PostalCode: "95173"
  StateProvince: "California"
  Country: "United States"
  Latitude: "37.3352"
  Longitude: "-121.8938"
- ID: "414"
  Line1: "0549 Springview Center"
  Line2: 
  City: "Dayton"
  PostalCode: "45490"
  StateProvince: "Ohio"
  Country: "United States"
  Latitude: "39.7505"
  Longitude: "-84.2686"
- ID: "415"
  Line1: "97 Westridge Way"
  Line2: 
  City: "Boise"
  PostalCode: "83732"
  StateProvince: "Idaho"
  Country: "United States"
  Latitude: "43.4599"
  Longitude: "-116.244"
- ID: "416"
  Line1: "2 Reindahl Junction"
  Line2: 
  City: "Washington"
  PostalCode: "20005"
  StateProvince: "District of Columbia"
  Country: "United States"
  Latitude: "38.9067"
  Longitude: "-77.0312"
- ID: "417"
  Line1: "768 Farmco Hill"
  Line2: 
  City: "Jackson"
  PostalCode: "38308"
  StateProvince: "Tennessee"
  Country: "United States"
  Latitude: "35.6124"
  Longitude: "-88.8412"
- ID: "418"
  Line1: "7 Anderson Parkway"
  Line2: 
  City: "Dearborn"
  PostalCode: "48126"
  StateProvince: "Michigan"
  Country: "United States"
  Latitude: "42.3349"
  Longitude: "-83.1801"
- ID: "419"
  Line1: "68 Northport Center"
  Line2: 
  City: "Portsmouth"
  PostalCode: "3804"
  StateProvince: "New Hampshire"
  Country: "United States"
  Latitude: "43.0059"
  Longitude: "-71.0132"
- ID: "420"
  Line1: "0 Dapin Hill"
  Line2: 
  City: "Richmond"
  PostalCode: "23277"
  StateProvince: "Virginia"
  Country: "United States"
  Latitude: "37.5535"
  Longitude: "-77.4604"
- ID: "421"
  Line1: "708 Dahle Hill"
  Line2: 
  City: "Toledo"
  PostalCode: "43605"
  StateProvince: "Ohio"
  Country: "United States"
  Latitude: "41.6525"
  Longitude: "-83.5085"
- ID: "422"
  Line1: "8 Briar Crest Road"
  Line2: 
  City: "Dayton"
  PostalCode: "45408"
  StateProvince: "Ohio"
  Country: "United States"
  Latitude: "39.7395"
  Longitude: "-84.229"
- ID: "423"
  Line1: "688 Holmberg Point"
  Line2: 
  City: "Philadelphia"
  PostalCode: "19196"
  StateProvince: "Pennsylvania"
  Country: "United States"
  Latitude: "40.0018"
  Longitude: "-75.1179"
- ID: "424"
  Line1: "727 Golf View Junction"
  Line2: 
  City: "Jacksonville"
  PostalCode: "32209"
  StateProvince: "Florida"
  Country: "United States"
  Latitude: "30.3584"
  Longitude: "-81.692"
- ID: "425"
  Line1: "09242 Monument Place"
  Line2: 
  City: "Northridge"
  PostalCode: "91328"
  StateProvince: "California"
  Country: "United States"
  Latitude: "33.7866"
  Longitude: "-118.2987"
- ID: "426"
  Line1: "96 Golden Leaf Crossing"
  Line2: 
  City: "Fort Lauderdale"
  PostalCode: "33325"
  StateProvince: "Florida"
  Country: "United States"
  Latitude: "26.1097"
  Longitude: "-80.3215"
- ID: "427"
  Line1: "441 Kings Parkway"
  Line2: 
  City: "New York City"
  PostalCode: "10029"
  StateProvince: "New York"
  Country: "United States"
  Latitude: "40.7918"
  Longitude: "-73.9448"
- ID: "428"
  Line1: "03 Blackbird Terrace"
  Line2: 
  City: "Springfield"
  PostalCode: "62776"
  StateProvince: "Illinois"
  Country: "United States"
  Latitude: "39.7495"
  Longitude: "-89.606"
- ID: "429"
  Line1: "5706 Forest Drive"
  Line2: 
  City: "Virginia Beach"
  PostalCode: "23471"
  StateProvince: "Virginia"
  Country: "United States"
  Latitude: "36.7957"
  Longitude: "-76.0126"
- ID: "430"
  Line1: "530 Crowley Road"
  Line2: 
  City: "Fresno"
  PostalCode: "93778"
  StateProvince: "California"
  Country: "United States"
  Latitude: "36.7464"
  Longitude: "-119.6397"
- ID: "431"
  Line1: "7580 Del Mar Junction"
  Line2: 
  City: "Charleston"
  PostalCode: "29403"
  StateProvince: "South Carolina"
  Country: "United States"
  Latitude: "32.7976"
  Longitude: "-79.9493"
- ID: "432"
  Line1: "98256 Dovetail Alley"
  Line2: 
  City: "Ogden"
  PostalCode: "84409"
  StateProvince: "Utah"
  Country: "United States"
  Latitude: "41.2553"
  Longitude: "-111.9567"
- ID: "433"
  Line1: "0209 Moland Junction"
  Line2: 
  City: "Reno"
  PostalCode: "89595"
  StateProvince: "Nevada"
  Country: "United States"
  Latitude: "40.5412"
  Longitude: "-119.5869"
- ID: "434"
  Line1: "5609 Old Shore Road"
  Line2: 
  City: "Fort Wayne"
  PostalCode: "46896"
  StateProvince: "Indiana"
  Country: "United States"
  Latitude: "41.0938"
  Longitude: "-85.0707"
- ID: "435"
  Line1: "320 Rieder Alley"
  Line2: 
  City: "Nashville"
  PostalCode: "37250"
  StateProvince: "Tennessee"
  Country: "United States"
  Latitude: "36.1866"
  Longitude: "-86.7852"
- ID: "436"
  Line1: "578 Mariners Cove Alley"
  Line2: 
  City: "Lansing"
  PostalCode: "48919"
  StateProvince: "Michigan"
  Country: "United States"
  Latitude: "42.7286"
  Longitude: "-84.5517"
- ID: "437"
  Line1: "874 Shelley Way"
  Line2: 
  City: "Pasadena"
  PostalCode: "91186"
  StateProvince: "California"
  Country: "United States"
  Latitude: "33.7866"
  Longitude: "-118.2987"
- ID: "438"
  Line1: "2 Nova Point"
  Line2: "Apt 66"
  City: "Jefferson City"
  PostalCode: "65110"
  StateProvince: "Missouri"
  Country: "United States"
  Latitude: "38.5309"
  Longitude: "-92.2493"
- ID: "439"
  Line1: "1191 Barby Lane"
  Line2: 
  City: "Atlanta"
  PostalCode: "30351"
  StateProvince: "Georgia"
  Country: "United States"
  Latitude: "33.8444"
  Longitude: "-84.474"
- ID: "440"
  Line1: "15 Redwing Terrace"
  Line2: 
  City: "Atlanta"
  PostalCode: "30368"
  StateProvince: "Georgia"
  Country: "United States"
  Latitude: "33.8444"
  Longitude: "-84.474"
- ID: "441"
  Line1: "48468 Boyd Street"
  Line2: 
  City: "Fort Pierce"
  PostalCode: "34949"
  StateProvince: "Florida"
  Country: "United States"
  Latitude: "27.3896"
  Longitude: "-80.2615"
- ID: "442"
  Line1: "4 Clarendon Drive"
  Line2: 
  City: "Marietta"
  PostalCode: "30066"
  StateProvince: "Georgia"
  Country: "United States"
  Latitude: "34.0378"
  Longitude: "-84.5038"
- ID: "443"
  Line1: "6 Granby Point"
  Line2: 
  City: "Boston"
  PostalCode: "2283"
  StateProvince: "Massachusetts"
  Country: "United States"
  Latitude: "42.3389"
  Longitude: "-70.9196"
- ID: "444"
  Line1: "70349 Kropf Trail"
  Line2: 
  City: "Albany"
  PostalCode: "12255"
  StateProvince: "New York"
  Country: "United States"
  Latitude: "42.6149"
  Longitude: "-73.9708"
- ID: "445"
  Line1: "0418 Monument Parkway"
  Line2: 
  City: "Des Moines"
  PostalCode: "50335"
  StateProvince: "Iowa"
  Country: "United States"
  Latitude: "41.6727"
  Longitude: "-93.5722"
- ID: "446"
  Line1: "4610 Meadow Valley Street"
  Line2: 
  City: "Augusta"
  PostalCode: "30911"
  StateProvince: "Georgia"
  Country: "United States"
  Latitude: "33.386"
  Longitude: "-82.091"
- ID: "447"
  Line1: "3526 Spenser Road"
  Line2: 
  City: "Evansville"
  PostalCode: "47747"
  StateProvince: "Indiana"
  Country: "United States"
  Latitude: "37.9971"
  Longitude: "-87.575"
- ID: "448"
  Line1: "3245 Bultman Street"
  Line2: 
  City: "Miami"
  PostalCode: "33124"
  StateProvince: "Florida"
  Country: "United States"
  Latitude: "25.5584"
  Longitude: "-80.4582"
- ID: "449"
  Line1: "976 Toban Court"
  Line2: 
  City: "Washington"
  PostalCode: "20508"
  StateProvince: "District of Columbia"
  Country: "United States"
  Latitude: "38.8933"
  Longitude: "-77.0146"
- ID: "450"
  Line1: "313 Lukken Road"
  Line2: 
  City: "Nashville"
  PostalCode: "37250"
  StateProvince: "Tennessee"
  Country: "United States"
  Latitude: "36.1866"
  Longitude: "-86.7852"
- ID: "451"
  Line1: "8 Larry Parkway"
  Line2: 
  City: "Visalia"
  PostalCode: "93291"
  StateProvince: "California"
  Country: "United States"
  Latitude: "36.3551"
  Longitude: "-119.301"
- ID: "452"
  Line1: "1634 Canary Court"
  Line2: 
  City: "Houston"
  PostalCode: "77065"
  StateProvince: "Texas"
  Country: "United States"
  Latitude: "29.9319"
  Longitude: "-95.6106"
- ID: "453"
  Line1: "114 Parkside Center"
  Line2: 
  City: "Kansas City"
  PostalCode: "64179"
  StateProvince: "Missouri"
  Country: "United States"
  Latitude: "39.035"
  Longitude: "-94.3567"
- ID: "454"
  Line1: "0 Toban Lane"
  Line2: 
  City: "Miami"
  PostalCode: "33261"
  StateProvince: "Florida"
  Country: "United States"
  Latitude: "25.5584"
  Longitude: "-80.4582"
- ID: "455"
  Line1: "8 Hollow Ridge Center"
  Line2: 
  City: "Aurora"
  PostalCode: "80044"
  StateProvince: "Colorado"
  Country: "United States"
  Latitude: "39.7388"
  Longitude: "-104.4083"
- ID: "456"
  Line1: "914 Vahlen Plaza"
  Line2: 
  City: "Austin"
  PostalCode: "78715"
  StateProvince: "Texas"
  Country: "United States"
  Latitude: "30.4501"
  Longitude: "-97.4865"
- ID: "457"
  Line1: "641 Mosinee Street"
  Line2: 
  City: "Kansas City"
  PostalCode: "66160"
  StateProvince: "Kansas"
  Country: "United States"
  Latitude: "39.0966"
  Longitude: "-94.7495"
- ID: "458"
  Line1: "0945 Atwood Drive"
  Line2: 
  City: "Cincinnati"
  PostalCode: "45264"
  StateProvince: "Ohio"
  Country: "United States"
  Latitude: "39.1668"
  Longitude: "-84.5382"
- ID: "459"
  Line1: "1234 Graceland Pass"
  Line2: 
  City: "Phoenix"
  PostalCode: "85030"
  StateProvince: "Arizona"
  Country: "United States"
  Latitude: "33.2765"
  Longitude: "-112.1872"
- ID: "460"
  Line1: "2 Larry Terrace"
  Line2: 
  City: "Dallas"
  PostalCode: "75210"
  StateProvince: "Texas"
  Country: "United States"
  Latitude: "32.7699"
  Longitude: "-96.743"
- ID: "461"
  Line1: "4 Stoughton Circle"
  Line2: 
  City: "Phoenix"
  PostalCode: "85067"
  StateProvince: "Arizona"
  Country: "United States"
  Latitude: "33.2765"
  Longitude: "-112.1872"
- ID: "462"
  Line1: "16 Blaine Way"
  Line2: 
  City: "Jacksonville"
  PostalCode: "32244"
  StateProvince: "Florida"
  Country: "United States"
  Latitude: "30.2231"
  Longitude: "-81.7556"
- ID: "463"
  Line1: "2138 Reinke Way"
  Line2: 
  City: "Dallas"
  PostalCode: "75323"
  StateProvince: "Texas"
  Country: "United States"
  Latitude: "32.7673"
  Longitude: "-96.7776"
- ID: "464"
  Line1: "8068 Nova Crossing"
  Line2: 
  City: "West Hartford"
  PostalCode: "6127"
  StateProvince: "Connecticut"
  Country: "United States"
  Latitude: "41.7918"
  Longitude: "-72.7188"
- ID: "465"
  Line1: "7 Shelley Parkway"
  Line2: 
  City: "Albany"
  PostalCode: "12247"
  StateProvince: "New York"
  Country: "United States"
  Latitude: "42.6149"
  Longitude: "-73.9708"
- ID: "466"
  Line1: "69686 Lillian Center"
  Line2: 
  City: "Muskegon"
  PostalCode: "49444"
  StateProvince: "Michigan"
  Country: "United States"
  Latitude: "43.1791"
  Longitude: "-86.1989"
- ID: "467"
  Line1: "99316 Algoma Drive"
  Line2: 
  City: "Idaho Falls"
  PostalCode: "83405"
  StateProvince: "Idaho"
  Country: "United States"
  Latitude: "43.3233"
  Longitude: "-111.7822"
- ID: "468"
  Line1: "82 7th Junction"
  Line2: 
  City: "Houston"
  PostalCode: "77206"
  StateProvince: "Texas"
  Country: "United States"
  Latitude: "29.834"
  Longitude: "-95.4342"
- ID: "469"
  Line1: "442 Macpherson Lane"
  Line2: 
  City: "Albuquerque"
  PostalCode: "87105"
  StateProvince: "New Mexico"
  Country: "United States"
  Latitude: "35.0448"
  Longitude: "-106.6893"
- ID: "470"
  Line1: "199 Armistice Park"
  Line2: 
  City: "Memphis"
  PostalCode: "38188"
  StateProvince: "Tennessee"
  Country: "United States"
  Latitude: "35.2017"
  Longitude: "-89.9715"
- ID: "471"
  Line1: "676 Warrior Way"
  Line2: 
  City: "Mobile"
  PostalCode: "36616"
  StateProvince: "Alabama"
  Country: "United States"
  Latitude: "30.671"
  Longitude: "-88.1267"
- ID: "472"
  Line1: "1 Rusk Plaza"
  Line2: 
  City: "Huntington"
  PostalCode: "25709"
  StateProvince: "West Virginia"
  Country: "United States"
  Latitude: "38.1321"
  Longitude: "-82.4183"
- ID: "473"
  Line1: "39711 Menomonie Place"
  Line2: 
  City: "Aiken"
  PostalCode: "29805"
  StateProvince: "South Carolina"
  Country: "United States"
  Latitude: "33.6993"
  Longitude: "-81.6465"
- ID: "474"
  Line1: "93311 Annamark Way"
  Line2: 
  City: "Charlotte"
  PostalCode: "28289"
  StateProvince: "North Carolina"
  Country: "United States"
  Latitude: "35.26"
  Longitude: "-80.8042"
- ID: "475"
  Line1: "18 Russell Avenue"
  Line2: 
  City: "Louisville"
  PostalCode: "40210"
  StateProvince: "Kentucky"
  Country: "United States"
  Latitude: "38.2306"
  Longitude: "-85.7905"
- ID: "476"
  Line1: "1 Bartelt Circle"
  Line2: 
  City: "Houston"
  PostalCode: "77040"
  StateProvince: "Texas"
  Country: "United States"
  Latitude: "29.8744"
  Longitude: "-95.5278"
- ID: "477"
  Line1: "5102 Springs Road"
  Line2: 
  City: "Minneapolis"
  PostalCode: "55407"
  StateProvince: "Minnesota"
  Country: "United States"
  Latitude: "44.9378"
  Longitude: "-93.2545"
- ID: "478"
  Line1: "5 Sherman Place"
  Line2: 
  City: "Toledo"
  PostalCode: "43615"
  StateProvince: "Ohio"
  Country: "United States"
  Latitude: "41.6492"
  Longitude: "-83.6706"
- ID: "479"
  Line1: "2 Weeping Birch Plaza"
  Line2: 
  City: "Washington"
  PostalCode: "20503"
  StateProvince: "District of Columbia"
  Country: "United States"
  Latitude: "38.9007"
  Longitude: "-77.0431"
- ID: "480"
  Line1: "9 Shasta Crossing"
  Line2: 
  City: "Stamford"
  PostalCode: "6922"
  StateProvince: "Connecticut"
  Country: "United States"
  Latitude: "41.0516"
  Longitude: "-73.5143"
- ID: "481"
  Line1: "67443 Independence Lane"
  Line2: 
  City: "Sacramento"
  PostalCode: "95838"
  StateProvince: "California"
  Country: "United States"
  Latitude: "38.6406"
  Longitude: "-121.444"
- ID: "482"
  Line1: "23048 Orin Way"
  Line2: 
  City: "Charlotte"
  PostalCode: "28210"
  StateProvince: "North Carolina"
  Country: "United States"
  Latitude: "35.1316"
  Longitude: "-80.8577"
- ID: "483"
  Line1: "769 Coolidge Circle"
  Line2: 
  City: "Colorado Springs"
  PostalCode: "80930"
  StateProvince: "Colorado"
  Country: "United States"
  Latitude: "38.8289"
  Longitude: "-104.5269"
- ID: "484"
  Line1: "92 Sheridan Circle"
  Line2: 
  City: "Evanston"
  PostalCode: "60208"
  StateProvince: "Illinois"
  Country: "United States"
  Latitude: "42.0586"
  Longitude: "-87.6845"
- ID: "485"
  Line1: "13 Prentice Point"
  Line2: 
  City: "Dallas"
  PostalCode: "75277"
  StateProvince: "Texas"
  Country: "United States"
  Latitude: "32.7673"
  Longitude: "-96.7776"
- ID: "486"
  Line1: "62 Pennsylvania Avenue"
  Line2: 
  City: "Nashville"
  PostalCode: "37245"
  StateProvince: "Tennessee"
  Country: "United States"
  Latitude: "36.1866"
  Longitude: "-86.7852"
- ID: "487"
  Line1: "92152 Rigney Pass"
  Line2: 
  City: "Fort Lauderdale"
  PostalCode: "33305"
  StateProvince: "Florida"
  Country: "United States"
  Latitude: "26.1497"
  Longitude: "-80.1229"
- ID: "488"
  Line1: "8 Miller Hill"
  Line2: 
  City: "Allentown"
  PostalCode: "18105"
  StateProvince: "Pennsylvania"
  Country: "United States"
  Latitude: "40.6934"
  Longitude: "-75.4712"
- ID: "489"
  Line1: "08533 Elgar Trail"
  Line2: 
  City: "Birmingham"
  PostalCode: "35205"
  StateProvince: "Alabama"
  Country: "United States"
  Latitude: "33.4951"
  Longitude: "-86.8059"
- ID: "490"
  Line1: "24 Summerview Alley"
  Line2: 
  City: "Virginia Beach"
  PostalCode: "23471"
  StateProvince: "Virginia"
  Country: "United States"
  Latitude: "36.7957"
  Longitude: "-76.0126"
- ID: "491"
  Line1: "3769 Trailsway Drive"
  Line2: 
  City: "Bakersfield"
  PostalCode: "93381"
  StateProvince: "California"
  Country: "United States"
  Latitude: "35.2944"
  Longitude: "-118.9052"
- ID: "492"
  Line1: "193 Hansons Lane"
  Line2: 
  City: "Columbia"
  PostalCode: "65218"
  StateProvince: "Missouri"
  Country: "United States"
  Latitude: "38.9033"
  Longitude: "-92.1022"
- ID: "493"
  Line1: "526 Calypso Plaza"
  Line2: 
  City: "San Antonio"
  PostalCode: "78230"
  StateProvince: "Texas"
  Country: "United States"
  Latitude: "29.5407"
  Longitude: "-98.5521"
- ID: "494"
  Line1: "4 Rutledge Parkway"
  Line2: 
  City: "Salem"
  PostalCode: "97306"
  StateProvince: "Oregon"
  Country: "United States"
  Latitude: "44.8685"
  Longitude: "-123.0438"
- ID: "495"
  Line1: "34929 Amoth Parkway"
  Line2: 
  City: "Evansville"
  PostalCode: "47705"
  StateProvince: "Indiana"
  Country: "United States"
  Latitude: "37.9971"
  Longitude: "-87.575"
- ID: "496"
  Line1: "4174 Prairie Rose Alley"
  Line2: 
  City: "Buffalo"
  PostalCode: "14263"
  StateProvince: "New York"
  Country: "United States"
  Latitude: "42.7684"
  Longitude: "-78.8871"
- ID: "497"
  Line1: "25 Dapin Court"
  Line2: 
  City: "Lancaster"
  PostalCode: "17605"
  StateProvince: "Pennsylvania"
  Country: "United States"
  Latitude: "40.0185"
  Longitude: "-76.2976"
- ID: "498"
  Line1: "624 Mesta Park"
  Line2: "Apt 12"
  City: "Minneapolis"
  PostalCode: "55423"
  StateProvince: "Minnesota"
  Country: "United States"
  Latitude: "44.8756"
  Longitude: "-93.2553"
- ID: "499"
  Line1: "978 Mandrake Point"
  Line2: 
  City: "Pittsburgh"
  PostalCode: "15225"
  StateProvince: "Pennsylvania"
  Country: "United States"
  Latitude: "40.5051"
  Longitude: "-80.1155"
- ID: "500"
  Line1: "88 Golf View Lane"
  Line2: 
  City: "Boston"
  PostalCode: "2298"
  StateProvince: "Massachusetts"
  Country: "United States"
  Latitude: "42.3823"
  Longitude: "-71.0323"
- ID: "501"
  Line1: "215 Muir Park"
  Line2: 
  City: "Charlotte"
  PostalCode: "28263"
  StateProvince: "North Carolina"
  Country: "United States"
  Latitude: "35.2268"
  Longitude: "-80.8432"
- ID: "502"
  Line1: "50 Waubesa Crossing"
  Line2: 
  City: "Newark"
  PostalCode: "7195"
  StateProvince: "New Jersey"
  Country: "United States"
  Latitude: "40.7918"
  Longitude: "-74.2452"
- ID: "503"
  Line1: "252 Di Loreto Circle"
  Line2: 
  City: "Biloxi"
  PostalCode: "39534"
  StateProvince: "Mississippi"
  Country: "United States"
  Latitude: "30.4067"
  Longitude: "-88.9211"
- ID: "504"
  Line1: "28 Rigney Pass"
  Line2: 
  City: "Boston"
  PostalCode: "2104"
  StateProvince: "Massachusetts"
  Country: "United States"
  Latitude: "42.3389"
  Longitude: "-70.9196"
- ID: "505"
  Line1: "9 Arkansas Terrace"
  Line2: 
  City: "San Diego"
  PostalCode: "92121"
  StateProvince: "California"
  Country: "United States"
  Latitude: "32.8919"
  Longitude: "-117.2035"
- ID: "506"
  Line1: "38044 Debs Place"
  Line2: 
  City: "Denver"
  PostalCode: "80204"
  StateProvince: "Colorado"
  Country: "United States"
  Latitude: "39.734"
  Longitude: "-105.0259"
- ID: "507"
  Line1: "1 Annamark Avenue"
  Line2: 
  City: "Austin"
  PostalCode: "78749"
  StateProvince: "Texas"
  Country: "United States"
  Latitude: "30.2166"
  Longitude: "-97.8508"
- ID: "508"
  Line1: "21933 Petterle Plaza"
  Line2: 
  City: "Sacramento"
  PostalCode: "94257"
  StateProvince: "California"
  Country: "United States"
  Latitude: "38.3774"
  Longitude: "-121.4444"
- ID: "509"
  Line1: "61 Gulseth Road"
  Line2: 
  City: "Phoenix"
  PostalCode: "85053"
  StateProvince: "Arizona"
  Country: "United States"
  Latitude: "33.6299"
  Longitude: "-112.1316"
- ID: "510"
  Line1: "43495 Straubel Alley"
  Line2: 
  City: "Albany"
  PostalCode: "12210"
  StateProvince: "New York"
  Country: "United States"
  Latitude: "42.6568"
  Longitude: "-73.7605"
- ID: "511"
  Line1: "59039 Anzinger Hill"
  Line2: 
  City: "Amarillo"
  PostalCode: "79159"
  StateProvince: "Texas"
  Country: "United States"
  Latitude: "35.216"
  Longitude: "-102.0714"
- ID: "512"
  Line1: "00 Crowley Pass"
  Line2: 
  City: "Dallas"
  PostalCode: "75397"
  StateProvince: "Texas"
  Country: "United States"
  Latitude: "32.7673"
  Longitude: "-96.7776"
- ID: "513"
  Line1: "50146 Eagan Parkway"
  Line2: 
  City: "Elizabeth"
  PostalCode: "7208"
  StateProvince: "New Jersey"
  Country: "United States"
  Latitude: "40.6747"
  Longitude: "-74.2239"
- ID: "514"
  Line1: "41293 Washington Street"
  Line2: 
  City: "Hialeah"
  PostalCode: "33018"
